id,bedrooms,gla,room_count,full_baths,half_baths,main_level_finished_area,upper_lvl_fin_area,bg_fin_area,year_built,close_price,latitude,longitude,std_unit_number,std_street_number,std_street_name,std_city,std_province,std_postal_code,std_full_address,subject_address
97650,2,1519.0,9,2,2,604.0,914.0,,2024,780000.0,51.0306,-114.113,1,2220,26 Avenue Sw,Calgary,AB,T2T1E8,"2220 26 Avenue Sw, Unit 1, Calgary, AB, T2T1E8","1633 27 Ave Sw, Calgary, AB, T2T1G7"
258935,2,1204.0,7,2,1,588.0,615.0,,2015,367500.0,51.2698,-113.972,1514,2400,Ravenswood View Se,Airdrie,AB,T4A0V7,"2400 Ravenswood View Se, Unit 1514, Airdrie, AB, T4A0V7","160 Marquis Pl Se, Airdrie, AB, T4A1Y7"
262388,2,1485.0,6,2,1,516.0,968.0,,2006,418000.0,51.0364,-114.102,2,2101,17 Street Sw,Calgary,AB,T2T4M5,"2101 17 Street Sw, Unit 2, Calgary, AB, T2T4M5","1633 27 Ave Sw, Calgary, AB, T2T1G7"
12333,3,1337.0,8,1,1,618.0,719.0,,2006,385000.0,51.2712,-113.994,102,800,Yankee Valley Boulevard Se,Airdrie,AB,T4A2L3,"800 Yankee Valley Boulevard Se, Unit 102, Airdrie, AB, T4A2L3","160 Marquis Pl Se, Airdrie, AB, T4A1Y7"
206080,2,1044.0,5,2,1,772.0,271.0,,2007,473500.0,51.0575,-114.137,307,118,34 Street Nw,Calgary,AB,T2N2X5,"118 34 Street Nw, Unit 307, Calgary, AB, T2N2X5","504 37 St Nw,, Calgary,, AB, T2N3B8"
78456,2,1587.0,13,2,1,831.0,756.0,,1990,530000.0,51.0608,-114.168,13,5810,Patina Drive Sw,Calgary,AB,T3H2Y6,"5810 Patina Drive Sw, Unit 13, Calgary, AB, T3H2Y6","504 37 St Nw,, Calgary,, AB, T2N3B8"
93216,3,1278.0,10,1,1,698.0,578.0,,1979,580000.0,51.0613,-114.146,2,140,Point Drive Nw,Calgary,AB,T3B4W3,"140 Point Drive Nw, Unit 2, Calgary, AB, T3B4W3","504 37 St Nw,, Calgary,, AB, T2N3B8"
88684,2,860.0,5,1,1,415.0,444.0,,2015,317000.0,51.0675,-114.083,102,1740,9 Street Nw,Calgary,AB,T2M4Z5,"1740 9 Street Nw, Unit 102, Calgary, AB, T2M4Z5","730 2 Ave Sw, Unit 1606, Calgary, AB, T2P1R8"
98429,2,1654.0,6,2,1,664.0,989.0,,2013,707000.0,51.0547,-114.114,1,2314,2 Avenue Nw,Calgary,AB,T2N0H2,"2314 2 Avenue Nw, Unit 1, Calgary, AB, T2N0H2","504 37 St Nw,, Calgary,, AB, T2N3B8"
66377,2,1343.0,5,2,1,638.0,704.0,,2024,595000.0,51.0707,-114.159,2,4532,17 Avenue Nw,Calgary,AB,T3B0P1,"4532 17 Avenue Nw, Unit 2, Calgary, AB, T3B0P1","504 37 St Nw,, Calgary,, AB, T2N3B8"
267010,2,1116.0,7,1,1,554.0,561.0,,1973,430000.0,51.0224,-114.109,3,2044,35 Avenue Sw,Calgary,AB,T2T2E1,"2044 35 Avenue Sw, Unit 3, Calgary, AB, T2T2E1","1633 27 Ave Sw, Calgary, AB, T2T1G7"
267056,2,1417.0,7,2,1,596.0,822.0,,2016,616000.0,51.0299,-114.102,201,2717,17 Street Sw,Calgary,AB,T2T4N4,"2717 17 Street Sw, Unit 201, Calgary, AB, T2T4N4","1633 27 Ave Sw, Calgary, AB, T2T1G7"
94802,2,1274.0,7,2,1,901.0,372.0,,2003,392500.0,51.0593,-114.086,201,824,10 Street Nw,Calgary,AB,T2N1W4,"824 10 Street Nw, Unit 201, Calgary, AB, T2N1W4","730 2 Ave Sw, Unit 1606, Calgary, AB, T2P1R8"
96810,4,2002.0,14,4,1,704.0,1297.0,,2025,1310000.0,51.053,-114.089,1,211,11 Street Nw,Calgary,AB,T2N1X2,"211 11 Street Nw, Unit 1, Calgary, AB, T2N1X2","730 2 Ave Sw, Unit 1606, Calgary, AB, T2P1R8"
267288,3,1418.0,10,2,1,655.0,762.0,,2023,651683.0,50.8947,-113.934,213,595,Mahogany Road Se,Calgary,AB,T3M3Y3,"595 Mahogany Road Se, Unit 213, Calgary, AB, T3M3Y3","58 Copperleaf Terr Se, Calgary, AB, T2Z0H9"
34011,2,1301.0,10,2,1,645.0,654.0,,2007,465000.0,51.0429,-114.136,102,99,Spruce Place Sw,Calgary,AB,T3C3X7,"99 Spruce Place Sw, Unit 102, Calgary, AB, T3C3X7","504 37 St Nw,, Calgary,, AB, T2N3B8"
288881,1,848.0,3,1,1,577.0,271.0,,1999,317500.0,51.0293,-114.095,108,1505,27 Avenue Sw,Calgary,AB,T2T1G5,"1505 27 Avenue Sw, Unit 108, Calgary, AB, T2T1G5","1633 27 Ave Sw, Calgary, AB, T2T1G7"
78780,1,1107.0,11,1,1,595.0,512.0,,2001,575000.0,51.0382,-114.034,303,1212,13 Street Se,Calgary,AB,T2G5R3,"1212 13 Street Se, Unit 303, Calgary, AB, T2G5R3","530 3 St Se, Unit 2306, Calgary, AB, T2G2L8"
258930,2,1048.0,9,1,2,443.0,604.0,,1987,385000.0,51.0576,-114.166,10,220,Village Terrace Sw,Calgary,AB,T3H2L3,"220 Village Terrace Sw, Unit 10, Calgary, AB, T3H2L3","504 37 St Nw,, Calgary,, AB, T2N3B8"
268711,3,1746.0,8,2,1,609.0,1136.0,,2005,569000.0,51.0229,-114.102,12,1729,34 Avenue Sw,Calgary,AB,T2T2B7,"1729 34 Avenue Sw, Unit 12, Calgary, AB, T2T2B7","1633 27 Ave Sw, Calgary, AB, T2T1G7"
78431,1,1212.0,5,1,1,822.0,390.0,,1912,568250.0,51.0419,-114.066,204,1117,1 Street Sw,Calgary,AB,T2R0T9,"1117 1 Street Sw, Unit 204, Calgary, AB, T2R0T9","730 2 Ave Sw, Unit 1606, Calgary, AB, T2P1R8"
284270,3,1134.0,10,1,1,562.0,572.0,,1979,325000.0,51.1278,-114.075,77,115,Bergen Road Nw,Calgary,AB,T3K1P2,"115 Bergen Road Nw, Unit 77, Calgary, AB, T3K1P2","184 Sandpiper Cir Nw, Calgary, AB, T3K3P4"
10139,2,2402.0,12,2,1,1252.0,1149.0,,2019,1525000.0,51.0527,-114.077,103,738,1 Avenue Sw,Calgary,AB,T2P5G8,"738 1 Avenue Sw, Unit 103, Calgary, AB, T2P5G8","530 3 St Se, Unit 2306, Calgary, AB, T2G2L8"
207594,2,1720.0,8,2,1,691.0,1028.0,,2003,690000.0,51.0187,-114.11,18,11,Scarpe Drive Sw,Calgary,AB,T2T6K6,"11 Scarpe Drive Sw, Unit 18, Calgary, AB, T2T6K6","1633 27 Ave Sw, Calgary, AB, T2T1G7"
290305,3,1257.0,11,2,1,613.0,644.0,,2004,610000.0,51.0593,-114.137,2,529,34 Street Nw,Calgary,AB,T2N2X8,"529 34 Street Nw, Unit 2, Calgary, AB, T2N2X8","504 37 St Nw,, Calgary,, AB, T2N3B8"
12172,2,1114.0,6,1,1,170.0,944.0,,1975,440000.0,51.0556,-114.05,1,643,4 Avenue Ne,Calgary,AB,T2E0J9,"643 4 Avenue Ne, Unit 1, Calgary, AB, T2E0J9","824 9A St Ne, Calgary, AB, T2E4L6"
275280,3,1247.0,9,2,1,618.0,628.0,,2007,399900.0,51.2698,-113.988,2301,2445,Kingsland Road Se,Airdrie,AB,T4A0B8,"2445 Kingsland Road Se, Unit 2301, Airdrie, AB, T4A0B8","160 Marquis Pl Se, Airdrie, AB, T4A1Y7"
64214,3,1268.0,10,3,1,625.0,642.0,,2008,535000.0,51.0695,-114.056,2,407,19 Avenue Ne,Calgary,AB,T2E1P4,"407 19 Avenue Ne, Unit 2, Calgary, AB, T2E1P4","824 9A St Ne, Calgary, AB, T2E4L6"
12789,3,1262.0,6,2,1,625.0,637.0,,2003,450000.0,51.064,-114.054,2,433,13 Avenue Ne,Calgary,AB,T2E1C3,"433 13 Avenue Ne, Unit 2, Calgary, AB, T2E1C3","824 9A St Ne, Calgary, AB, T2E4L6"
271885,2,1216.0,6,2,1,531.0,559.0,,2014,399000.0,51.2583,-113.99,903,1225,Kings Heights Way Se,Airdrie,AB,T4A0M4,"1225 Kings Heights Way Se, Unit 903, Airdrie, AB, T4A0M4","160 Marquis Pl Se, Airdrie, AB, T4A1Y7"
278429,3,1557.0,9,2,1,696.0,860.0,,1992,425000.0,51.1407,-114.107,128,388,Sandarac Drive Nw,Calgary,AB,T3K4B2,"388 Sandarac Drive Nw, Unit 128, Calgary, AB, T3K4B2","9449 Hidden Valley Dr Nw, Calgary, AB, T3A5T1"
263436,3,1443.0,3,2,1,797.0,645.0,,1999,435000.0,51.1216,-113.969,109,7707,Martha'S Haven Park Ne,Calgary,AB,T3J3Z6,"7707 Martha'S Haven Park Ne, Unit 109, Calgary, AB, T3J3Z6","120 Castlegrove Rd Ne, Calgary, AB, T3J1T5"
66868,3,1697.0,9,2,1,781.0,915.0,,2005,458000.0,51.2697,-114.017,143,100,Coopers Common Sw,Airdrie,AB,T4B3C8,"100 Coopers Common Sw, Unit 143, Airdrie, AB, T4B3C8","160 Marquis Pl Se, Airdrie, AB, T4A1Y7"
268942,3,1341.0,11,3,1,661.0,680.0,,2017,700000.0,51.037,-114.122,1,1924,25A Street Sw,Calgary,AB,T3E1Y5,"1924 25A Street Sw, Unit 1, Calgary, AB, T3E1Y5","1633 27 Ave Sw, Calgary, AB, T2T1G7"
93193,2,1587.0,9,2,1,792.0,795.0,,2010,560000.0,51.057,-114.094,401,476,14 Street Nw,Calgary,AB,T2N1Z7,"476 14 Street Nw, Unit 401, Calgary, AB, T2N1Z7","730 2 Ave Sw, Unit 1606, Calgary, AB, T2P1R8"
94817,3,1104.0,8,1,1,533.0,570.0,,1980,390500.0,51.1324,-114.086,60,380,Bermuda Drive Nw,Calgary,AB,T3K1Z5,"380 Bermuda Drive Nw, Unit 60, Calgary, AB, T3K1Z5","184 Sandpiper Cir Nw, Calgary, AB, T3K3P4"
207448,3,1184.0,8,2,1,504.0,679.0,,2025,485000.0,51.167,-113.95,532,137,Red Embers Link Ne,Calgary,AB,T3N2G3,"137 Red Embers Link Ne, Unit 532, Calgary, AB, T3N2G3","1083 Cornerstone St Ne, Calgary, AB, T3N1G5"
34627,2,1240.0,7,2,1,593.0,647.0,,2008,423000.0,51.0389,-114.216,1215,211,Aspen Stone Boulevard Sw,Calgary,AB,T3H0K1,"211 Aspen Stone Boulevard Sw, Unit 1215, Calgary, AB, T3H0K1","29 Timberline Crt Sw, Calgary, AB, T3H6C8"
206279,3,1547.0,6,2,1,547.0,938.0,,2021,480000.0,51.1287,-113.926,105,116,Saddlestone Heath Ne,Calgary,AB,T3J5K8,"116 Saddlestone Heath Ne, Unit 105, Calgary, AB, T3J5K8","323 Taracove Estate Dr Ne, Calgary, AB, T3J5A1"
205800,4,1712.0,15,3,1,771.0,940.0,,2021,860000.0,51.0326,-114.2,37,7825,Spring Willow Drive Sw,Calgary,AB,T3H,"7825 Spring Willow Drive Sw, Unit 37, Calgary, AB, T3H","29 Timberline Crt Sw, Calgary, AB, T3H6C8"
205917,3,1407.0,7,2,1,924.0,483.0,,2014,490000.0,51.0387,-114.214,318,25,Aspenmont Heights Sw,Calgary,AB,T3H0E4,"25 Aspenmont Heights Sw, Unit 318, Calgary, AB, T3H0E4","29 Timberline Crt Sw, Calgary, AB, T3H6C8"
96335,2,1353.0,6,2,1,569.0,783.0,,2011,470000.0,51.0293,-114.1,203,1707,27 Avenue Sw,Calgary,AB,T2T1G9,"1707 27 Avenue Sw, Unit 203, Calgary, AB, T2T1G9","1633 27 Ave Sw, Calgary, AB, T2T1G7"
86473,3,1235.0,9,1,1,582.0,652.0,,1980,290000.0,51.1009,-113.938,32,1515,Falconridge Drive Ne,Calgary,AB,T3J1J6,"1515 Falconridge Drive Ne, Unit 32, Calgary, AB, T3J1J6","323 Taracove Estate Dr Ne, Calgary, AB, T3J5A1"
12619,3,1470.0,6,2,1,608.0,666.0,,2024,485000.0,51.1551,-113.937,109,75,Cornerstone Row Ne,Calgary,AB,T3N2K4,"75 Cornerstone Row Ne, Unit 109, Calgary, AB, T3N2K4","1083 Cornerstone St Ne, Calgary, AB, T3N1G5"
286632,2,1138.0,8,2,1,546.0,591.0,,2006,431750.0,51.142,-114.249,4,164,Rockyledge View Nw,Calgary,AB,T3G,"164 Rockyledge View Nw, Unit 4, Calgary, AB, T3G","2 Rockcliff Hts Nw, Calgary, AB, T3G0C7"
64330,2,1111.0,7,2,1,540.0,571.0,,2021,395000.0,51.1674,-113.964,202,140,Redstone Walk Ne,Calgary,AB,T3N1M6,"140 Redstone Walk Ne, Unit 202, Calgary, AB, T3N1M6","1083 Cornerstone St Ne, Calgary, AB, T3N1G5"
12550,3,1202.0,9,3,1,598.0,604.0,,2018,400000.0,51.1674,-113.957,213,31,Red Embers Parade Ne,Calgary,AB,T3N1E9,"31 Red Embers Parade Ne, Unit 213, Calgary, AB, T3N1E9","1083 Cornerstone St Ne, Calgary, AB, T3N1G5"
275387,3,1360.0,9,3,1,669.0,691.0,,2008,615000.0,51.0294,-114.099,1,1623,27 Avenue Sw,Calgary,AB,T2T1G7,"1623 27 Avenue Sw, Unit 1, Calgary, AB, T2T1G7","1633 27 Ave Sw, Calgary, AB, T2T1G7"
12042,3,1279.0,7,2,1,634.0,644.0,,2023,466000.0,50.877,-113.941,3103,410,Seton Passage Se,Calgary,AB,T3M2M3,"410 Seton Passage Se, Unit 3103, Calgary, AB, T3M2M3","119 110 Auburn Meadows View Se, Calgary,, AB, T3M2M2"
258680,3,1496.0,8,2,1,620.0,620.0,,2014,630000.0,51.0505,-114.046,107,28,Mcdougall Court Ne,Calgary,AB,T2E8R3,"28 Mcdougall Court Ne, Unit 107, Calgary, AB, T2E8R3","530 3 St Se, Unit 2306, Calgary, AB, T2G2L8"
258547,3,1143.0,7,1,1,578.0,564.0,,2003,385000.0,51.1233,-113.943,1509,111,Tarawood Lane Ne,Calgary,AB,T3J,"111 Tarawood Lane Ne, Unit 1509, Calgary, AB, T3J","323 Taracove Estate Dr Ne, Calgary, AB, T3J5A1"
258705,2,1113.0,6,1,1,731.0,382.0,,1929,556000.0,51.0425,-114.06,308,220,11 Avenue Se,Calgary,AB,T2G0X8,"220 11 Avenue Se, Unit 308, Calgary, AB, T2G0X8","530 3 St Se, Unit 2306, Calgary, AB, T2G2L8"
260509,2,2547.0,9,2,1,1692.0,855.0,,1995,1350000.0,51.0532,-114.071,6501,400,Eau Claire Avenue Sw,Calgary,AB,T2P4X2,"400 Eau Claire Avenue Sw, Unit 6501, Calgary, AB, T2P4X2","530 3 St Se, Unit 2306, Calgary, AB, T2G2L8"
95721,2,1280.0,5,2,1,682.0,597.0,,2018,434000.0,50.8764,-113.95,56,138,Seton Passage Se,Calgary,AB,T3M3A6,"138 Seton Passage Se, Unit 56, Calgary, AB, T3M3A6","119 110 Auburn Meadows View Se, Calgary,, AB, T3M2M2"
270343,1,888.0,4,1,1,437.0,451.0,,1979,402500.0,51.0569,-114.06,104,205,5 Avenue Ne,Calgary,AB,T2E0K7,"205 5 Avenue Ne, Unit 104, Calgary, AB, T2E0K7","730 2 Ave Sw, Unit 1606, Calgary, AB, T2P1R8"
95727,2,1285.0,8,2,1,564.0,719.0,,2018,435000.0,50.8784,-113.954,408,19500,37 Street Se,Calgary,AB,T3M2W9,"19500 37 Street Se, Unit 408, Calgary, AB, T3M2W9","119 110 Auburn Meadows View Se, Calgary,, AB, T3M2M2"
273412,2,1596.0,9,2,1,790.0,805.0,,1979,630000.0,51.0299,-114.071,105,330,26 Avenue Sw,Calgary,AB,T2S2T3,"330 26 Avenue Sw, Unit 105, Calgary, AB, T2S2T3","1633 27 Ave Sw, Calgary, AB, T2T1G7"
42490,2,1423.0,6,2,1,700.0,723.0,,1999,495000.0,51.0574,-114.087,122,1110,5 Avenue Nw,Calgary,AB,T2N0R6,"1110 5 Avenue Nw, Unit 122, Calgary, AB, T2N0R6","730 2 Ave Sw, Unit 1606, Calgary, AB, T2P1R8"
95643,3,1391.0,12,2,1,520.0,869.0,,2010,430000.0,50.897,-113.96,1210,10,Auburn Bay Avenue Se,Calgary,AB,T3M0P7,"10 Auburn Bay Avenue Se, Unit 1210, Calgary, AB, T3M0P7","119 110 Auburn Meadows View Se, Calgary,, AB, T3M2M2"
206622,3,1303.0,9,1,1,644.0,659.0,,2002,408000.0,51.1326,-114.214,122,950,Arbour Lake Road Nw,Calgary,AB,T3G5B3,"950 Arbour Lake Road Nw, Unit 122, Calgary, AB, T3G5B3","218 88 Arbour Lake Rd Nw, Calgary, AB, T3G0C2"
277126,2,1277.0,8,2,1,604.0,673.0,,1980,499900.0,51.1295,-114.093,61,70,Beacham Way Nw,Calgary,AB,T3K1R8,"70 Beacham Way Nw, Unit 61, Calgary, AB, T3K1R8","184 Sandpiper Cir Nw, Calgary, AB, T3K3P4"
96453,1,1015.0,5,1,1,718.0,296.0,,2001,455000.0,51.0218,-114.112,307,3650,Marda Link Sw,Calgary,AB,T2T6K8,"3650 Marda Link Sw, Unit 307, Calgary, AB, T2T6K8","1633 27 Ave Sw, Calgary, AB, T2T1G7"
274008,2,1451.0,6,2,1,931.0,519.0,,2014,527860.0,51.0393,-114.215,227,15,Aspenmont Heights Sw,Calgary,AB,T3H0E3,"15 Aspenmont Heights Sw, Unit 227, Calgary, AB, T3H0E3","29 Timberline Crt Sw, Calgary, AB, T3H6C8"
96919,2,2080.0,10,2,1,1088.0,991.0,,1976,1493000.0,51.0249,-114.073,17,3203,Rideau Place Sw,Calgary,AB,T2S,"3203 Rideau Place Sw, Unit 17, Calgary, AB, T2S","1633 27 Ave Sw, Calgary, AB, T2T1G7"
49167,2,2004.0,7,2,1,1048.0,956.0,,1976,1249000.0,51.0242,-114.073,2,3315,Rideau Place Sw,Calgary,AB,T2S,"3315 Rideau Place Sw, Unit 2, Calgary, AB, T2S","1633 27 Ave Sw, Calgary, AB, T2T1G7"
96434,2,1010.0,7,2,1,506.0,503.0,,2015,499900.0,51.0284,-114.098,303,1611,28 Avenue Sw,Calgary,AB,T2T1J5,"1611 28 Avenue Sw, Unit 303, Calgary, AB, T2T1J5","1633 27 Ave Sw, Calgary, AB, T2T1G7"
78522,3,1484.0,11,2,1,741.0,742.0,,2012,472000.0,50.9147,-113.941,546,130,New Brighton Way Se,Calgary,AB,T2Z1H7,"130 New Brighton Way Se, Unit 546, Calgary, AB, T2Z1H7","58 Copperleaf Terr Se, Calgary, AB, T2Z0H9"
42282,2,1301.0,6,3,1,641.0,659.0,,2007,528500.0,51.0293,-114.101,13,1717,27 Avenue Sw,Calgary,AB,T2T1J6,"1717 27 Avenue Sw, Unit 13, Calgary, AB, T2T1J6","1633 27 Ave Sw, Calgary, AB, T2T1G7"
78392,3,1076.0,8,2,1,568.0,508.0,,1994,537500.0,51.0297,-114.097,1,1604,27 Avenue Sw,Calgary,AB,T2T1G6,"1604 27 Avenue Sw, Unit 1, Calgary, AB, T2T1G6","1633 27 Ave Sw, Calgary, AB, T2T1G7"
270358,4,1446.0,10,3,1,728.0,718.0,,1995,500000.0,51.139,-114.093,27,200,Sandstone Drive Nw,Calgary,AB,T3K3A5,"200 Sandstone Drive Nw, Unit 27, Calgary, AB, T3K3A5","184 Sandpiper Cir Nw, Calgary, AB, T3K3P4"
93934,2,1819.0,7,2,1,924.0,815.0,,2014,650000.0,51.0233,-114.102,104,1804,34 Avenue Sw,Calgary,AB,T2T2B8,"1804 34 Avenue Sw, Unit 104, Calgary, AB, T2T2B8","1633 27 Ave Sw, Calgary, AB, T2T1G7"
4287,3,1041.0,7,1,1,509.0,532.0,,1979,323500.0,51.0911,-113.948,5,4360,58 Street Ne,Calgary,AB,T1Y4S4,"4360 58 Street Ne, Unit 5, Calgary, AB, T1Y4S4","120 Castlegrove Rd Ne, Calgary, AB, T3J1T5"
260931,2,1353.0,9,2,1,655.0,697.0,,1979,450360.0,51.1325,-114.089,36,28,Berwick Crescent Nw,Calgary,AB,T3K1Y7,"28 Berwick Crescent Nw, Unit 36, Calgary, AB, T3K1Y7","184 Sandpiper Cir Nw, Calgary, AB, T3K3P4"
92582,2,1414.0,6,2,1,777.0,636.0,,2006,515000.0,51.1505,-114.22,,54,Royal Oak Lane Nw,Calgary,AB,T3G6B4,"54 Royal Oak Lane Nw, Calgary, AB, T3G6B4","2 Rockcliff Hts Nw, Calgary, AB, T3G0C7"
289672,3,1257.0,10,2,1,733.0,524.0,,1913,875000.0,51.0699,-114.059,,218,19 Avenue Ne,Calgary,AB,T2E1P1,"218 19 Avenue Ne, Calgary, AB, T2E1P1","824 9A St Ne, Calgary, AB, T2E4L6"
273466,2,909.0,5,1,,416.0,492.0,,1971,279500.0,51.0409,-114.088,104,1123,13 Avenue Sw,Calgary,AB,T2R0L7,"1123 13 Avenue Sw, Unit 104, Calgary, AB, T2R0L7","1633 27 Ave Sw, Calgary, AB, T2T1G7"
273488,4,2004.0,13,3,1,972.0,1031.0,,2013,1200000.0,51.0323,-114.107,,2526,19A Street Sw,Calgary,AB,T2T4Z2,"2526 19A Street Sw, Calgary, AB, T2T4Z2","1633 27 Ave Sw, Calgary, AB, T2T1G7"
93838,3,1124.0,10,1,1,542.0,582.0,,2001,605000.0,51.1344,-114.243,,149,Tuscany Springs Way Nw,Calgary,AB,T3L2L5,"149 Tuscany Springs Way Nw, Calgary, AB, T3L2L5","2 Rockcliff Hts Nw, Calgary, AB, T3G0C7"
273410,3,1260.0,9,2,1,620.0,640.0,,1982,860000.0,51.0275,-114.103,,1819,29 Avenue Sw,Calgary,AB,T2T1M9,"1819 29 Avenue Sw, Calgary, AB, T2T1M9","1633 27 Ave Sw, Calgary, AB, T2T1G7"
273534,6,3692.0,18,4,1,1904.0,1787.0,,2019,3700000.0,51.0211,-114.09,,3815,11 Street Sw,Calgary,AB,T2T3M5,"3815 11 Street Sw, Calgary, AB, T2T3M5","1633 27 Ave Sw, Calgary, AB, T2T1G7"
289572,2,559.0,7,1,1,558.0,,,1998,350000.0,51.0579,-114.05,104,718,5 Street Ne,Calgary,AB,T2E3W8,"718 5 Street Ne, Unit 104, Calgary, AB, T2E3W8","824 9A St Ne, Calgary, AB, T2E4L6"
96322,2,1194.0,9,2,1,596.0,598.0,,2002,463000.0,51.1345,-114.238,,72,Tuscany Springs Gardens Nw,Calgary,AB,T3L2R4,"72 Tuscany Springs Gardens Nw, Calgary, AB, T3L2R4","2 Rockcliff Hts Nw, Calgary, AB, T3G0C7"
10123,3,2365.0,13,2,2,1144.0,1220.0,,2002,812000.0,51.1469,-114.234,,61,Royal Oak Cove Nw,Calgary,AB,T3G4X7,"61 Royal Oak Cove Nw, Calgary, AB, T3G4X7","2 Rockcliff Hts Nw, Calgary, AB, T3G0C7"
269725,2,920.0,5,1,1,920.0,,,1980,299500.0,51.0395,-114.089,602,1140,15 Avenue Sw,Calgary,AB,T2R1K6,"1140 15 Avenue Sw, Unit 602, Calgary, AB, T2R1K6","1633 27 Ave Sw, Calgary, AB, T2T1G7"
270604,5,2115.0,17,3,1,1084.0,1030.0,,1912,1750000.0,51.0242,-114.08,,3415,6 Street Sw,Calgary,AB,T2S2M5,"3415 6 Street Sw, Calgary, AB, T2S2M5","1633 27 Ave Sw, Calgary, AB, T2T1G7"
68328,4,2051.0,13,3,1,979.0,1071.0,,2006,920000.0,51.152,-114.226,,154,Royal Oak Green Nw,Calgary,AB,T3G6A7,"154 Royal Oak Green Nw, Calgary, AB, T3G6A7","2 Rockcliff Hts Nw, Calgary, AB, T3G0C7"
68306,5,2041.0,14,3,1,885.0,1155.0,,2003,750000.0,51.1417,-114.23,,49,Royal Elm Mews Nw,Calgary,AB,T3G5P6,"49 Royal Elm Mews Nw, Calgary, AB, T3G5P6","2 Rockcliff Hts Nw, Calgary, AB, T3G0C7"
273995,2,856.0,5,1,,400.0,455.0,,1979,376100.0,51.0318,-114.074,19,616,24 Avenue Sw,Calgary,AB,T2S0K6,"616 24 Avenue Sw, Unit 19, Calgary, AB, T2S0K6","1633 27 Ave Sw, Calgary, AB, T2T1G7"
91544,6,2236.0,14,3,1,1169.0,1067.0,,1998,850000.0,51.1469,-114.235,,191,Rocky Ridge Landing Nw,Calgary,AB,T3G4J7,"191 Rocky Ridge Landing Nw, Calgary, AB, T3G4J7","2 Rockcliff Hts Nw, Calgary, AB, T3G0C7"
207328,3,1725.0,10,2,1,719.0,1006.0,,2007,670000.0,50.9764,-113.69,,59,Brander Avenue Nw,Langdon,AB,T0J1X2,"59 Brander Avenue Nw, Langdon, AB, T0J1X2","12 Mcdougall St Nw, Langdon, AB, T0J1X2"
95629,4,1255.0,9,2,1,618.0,367.0,,2004,447500.0,51.149,-114.218,,68,Royal Birch Villas Nw,Calgary,AB,T3G5V2,"68 Royal Birch Villas Nw, Calgary, AB, T3G5V2","2 Rockcliff Hts Nw, Calgary, AB, T3G0C7"
272053,5,2235.0,14,3,1,1166.0,1068.0,,2019,1550000.0,51.0264,-114.126,,3207,26A Street Sw,Calgary,AB,T3E2E4,"3207 26A Street Sw, Calgary, AB, T3E2E4","1633 27 Ave Sw, Calgary, AB, T2T1G7"
260508,4,2129.0,8,2,1,920.0,1208.0,,2024,677500.0,50.9778,-113.698,,363,Northern Lights Green,Rural Rocky View County,AB,T0J1X2,"363 Northern Lights Green, Rural Rocky View County, AB, T0J1X2","12 Mcdougall St Nw, Langdon, AB, T0J1X2"
272023,4,4486.0,19,4,1,2442.0,2043.0,,2014,4400000.0,51.0157,-114.083,,4248,Britannia Drive Sw,Calgary,AB,T2S1J3,"4248 Britannia Drive Sw, Calgary, AB, T2S1J3","1633 27 Ave Sw, Calgary, AB, T2T1G7"
9896,3,1720.0,13,2,1,749.0,973.0,,1996,660000.0,51.1253,-114.216,,66,Scotia Point Nw,Calgary,AB,T3L2C5,"66 Scotia Point Nw, Calgary, AB, T3L2C5","218 88 Arbour Lake Rd Nw, Calgary, AB, T3G0C2"
91643,5,2454.0,15,3,1,1240.0,1213.0,,1948,862500.0,51.0412,-114.118,,1405,24 Street Sw,Calgary,AB,T3C1H9,"1405 24 Street Sw, Calgary, AB, T3C1H9","1633 27 Ave Sw, Calgary, AB, T2T1G7"
290545,3,1518.0,8,3,1,748.0,769.0,,2010,885000.0,51.0594,-114.041,,1001,8 Avenue Ne,Calgary,AB,T2E0S4,"1001 8 Avenue Ne, Calgary, AB, T2E0S4","824 9A St Ne, Calgary, AB, T2E4L6"
93858,3,1399.0,8,2,1,695.0,703.0,,2010,639400.0,51.1449,-114.214,,64,Royal Birch Park Nw,Calgary,AB,T3G0B9,"64 Royal Birch Park Nw, Calgary, AB, T3G0B9","2 Rockcliff Hts Nw, Calgary, AB, T3G0C7"
98035,3,1351.0,9,2,1,685.0,666.0,,2002,660000.0,51.1348,-114.244,,75,Tuscany Springs Rise Nw,Calgary,AB,T3L2S3,"75 Tuscany Springs Rise Nw, Calgary, AB, T3L2S3","2 Rockcliff Hts Nw, Calgary, AB, T3G0C7"
272730,4,2014.0,13,3,1,966.0,1048.0,,2019,998500.0,51.0293,-114.124,,2820,26 Street Sw,Calgary,AB,T3E2B1,"2820 26 Street Sw, Calgary, AB, T3E2B1","1633 27 Ave Sw, Calgary, AB, T2T1G7"
55446,5,2899.0,16,3,1,1317.0,1582.0,,2015,1310000.0,51.1382,-114.251,,303,Tusslewood Terrace Nw,Calgary,AB,T3L2W5,"303 Tusslewood Terrace Nw, Calgary, AB, T3L2W5","2 Rockcliff Hts Nw, Calgary, AB, T3G0C7"
280301,2,1791.0,10,2,1,1083.0,708.0,,1998,799900.0,51.0154,-114.107,,2012,43 Avenue Sw,Calgary,AB,T2T2N2,"2012 43 Avenue Sw, Calgary, AB, T2T2N2","1633 27 Ave Sw, Calgary, AB, T2T1G7"
95753,2,1173.0,8,1,1,549.0,623.0,,2004,437000.0,51.1533,-114.233,,150,Royal Oak Gardens Nw,Calgary,AB,T3G5S5,"150 Royal Oak Gardens Nw, Calgary, AB, T3G5S5","2 Rockcliff Hts Nw, Calgary, AB, T3G0C7"
274352,4,3530.0,15,3,2,1527.0,2001.0,,2018,1752500.0,51.037,-114.105,,1822,18A Street Sw,Calgary,AB,T2T4V9,"1822 18A Street Sw, Calgary, AB, T2T4V9","1633 27 Ave Sw, Calgary, AB, T2T1G7"
286619,5,1704.0,16,3,1,794.0,909.0,,2025,963000.0,51.0629,-114.041,,1111,Regal Crescent Ne,Calgary,AB,T2E5H2,"1111 Regal Crescent Ne, Calgary, AB, T2E5H2","824 9A St Ne, Calgary, AB, T2E4L6"
265938,4,2378.0,11,2,1,1272.0,1105.0,,2001,820000.0,51.1484,-114.226,,106,Royal Oak Crescent Nw,Calgary,AB,T3G4Y7,"106 Royal Oak Crescent Nw, Calgary, AB, T3G4Y7","2 Rockcliff Hts Nw, Calgary, AB, T3G0C7"
267102,3,1406.0,9,2,1,603.0,802.0,,2003,610000.0,51.1423,-114.232,,1,Royal Elm Way Nw,Calgary,AB,T3G5M2,"1 Royal Elm Way Nw, Calgary, AB, T3G5M2","2 Rockcliff Hts Nw, Calgary, AB, T3G0C7"
267148,2,1559.0,10,3,1,802.0,757.0,,2002,610000.0,51.1371,-114.236,,104,Rocky Vista Terrace Nw,Calgary,AB,T3G5G7,"104 Rocky Vista Terrace Nw, Calgary, AB, T3G5G7","2 Rockcliff Hts Nw, Calgary, AB, T3G0C7"
277136,5,2758.0,16,4,1,1378.0,1379.0,,2006,1782500.0,51.0312,-114.106,,1943,25 Avenue Sw,Calgary,AB,T2T1A6,"1943 25 Avenue Sw, Calgary, AB, T2T1A6","1633 27 Ave Sw, Calgary, AB, T2T1G7"
277232,2,1924.0,8,2,1,690.0,770.0,,1995,810000.0,51.0362,-114.091,,1906,12 Street Sw,Calgary,AB,T2T0L1,"1906 12 Street Sw, Calgary, AB, T2T0L1","1633 27 Ave Sw, Calgary, AB, T2T1G7"
282160,4,2276.0,12,3,1,1058.0,1217.0,,2023,1425000.0,51.0552,-114.03,,313,13 Street Ne,Calgary,AB,T2E4R9,"313 13 Street Ne, Calgary, AB, T2E4R9","824 9A St Ne, Calgary, AB, T2E4L6"
278346,4,1904.0,11,1,1,1106.0,797.0,,1912,1195000.0,51.0411,-114.108,,407,Superior Avenue Sw,Calgary,AB,T3C2J5,"407 Superior Avenue Sw, Calgary, AB, T3C2J5","1633 27 Ave Sw, Calgary, AB, T2T1G7"
277295,2,1415.0,8,2,1,771.0,644.0,,2006,469000.0,51.1506,-114.219,,8930,Royal Oak Way Nw,Calgary,AB,T3G6B4,"8930 Royal Oak Way Nw, Calgary, AB, T3G6B4","2 Rockcliff Hts Nw, Calgary, AB, T3G0C7"
88648,2,937.0,7,2,,796.0,141.0,,2004,300500.0,51.0432,-114.104,401,1833,11 Avenue Sw,Calgary,AB,T3C0N7,"1833 11 Avenue Sw, Unit 401, Calgary, AB, T3C0N7","1633 27 Ave Sw, Calgary, AB, T2T1G7"
96687,4,1938.0,15,3,1,959.0,980.0,,2011,1089850.0,51.0145,-114.108,,2036,44 Avenue Sw,Calgary,AB,T2T2N8,"2036 44 Avenue Sw, Calgary, AB, T2T2N8","1633 27 Ave Sw, Calgary, AB, T2T1G7"
93779,3,1344.0,7,2,1,348.0,994.0,,1997,610000.0,51.0297,-114.099,,1638,27 Avenue Sw,Calgary,AB,T2T1G6,"1638 27 Avenue Sw, Calgary, AB, T2T1G6","1633 27 Ave Sw, Calgary, AB, T2T1G7"
97639,3,1469.0,9,3,1,704.0,765.0,,2019,740000.0,51.0333,-114.125,,2634,23 Avenue Sw,Calgary,AB,T3E2C3,"2634 23 Avenue Sw, Calgary, AB, T3E2C3","1633 27 Ave Sw, Calgary, AB, T2T1G7"
278461,3,1350.0,8,2,1,683.0,666.0,,2001,578500.0,51.133,-114.243,,135,Tuscany Springs Circle Nw,Calgary,AB,T3L2N1,"135 Tuscany Springs Circle Nw, Calgary, AB, T3L2N1","2 Rockcliff Hts Nw, Calgary, AB, T3G0C7"
96764,3,2006.0,10,3,1,1023.0,982.0,,1996,1200000.0,51.0352,-114.107,,2105,19 Street Sw,Calgary,AB,T2T0M1,"2105 19 Street Sw, Calgary, AB, T2T0M1","1633 27 Ave Sw, Calgary, AB, T2T1G7"
281187,5,1968.0,14,3,1,1022.0,945.0,,1999,795000.0,51.145,-114.248,,316,Rocky Ridge Close Nw,Calgary,AB,T3G4W9,"316 Rocky Ridge Close Nw, Calgary, AB, T3G4W9","2 Rockcliff Hts Nw, Calgary, AB, T3G0C7"
96762,5,3743.0,19,3,1,1893.0,1849.0,,2010,2800000.0,51.0174,-114.099,,4120,15A Street Sw,Calgary,AB,T2T4C9,"4120 15A Street Sw, Calgary, AB, T2T4C9","1633 27 Ave Sw, Calgary, AB, T2T1G7"
86367,1,697.0,4,1,,428.0,244.0,,1980,255000.0,51.033,-114.097,13,2400,15 Street Sw,Calgary,AB,T2T5S3,"2400 15 Street Sw, Unit 13, Calgary, AB, T2T5S3","1633 27 Ave Sw, Calgary, AB, T2T1G7"
281377,5,2812.0,16,3,1,1454.0,1357.0,,2004,1145000.0,51.1401,-114.23,,27,Royal Ridge Terrace Nw,Calgary,AB,T3G5Y9,"27 Royal Ridge Terrace Nw, Calgary, AB, T3G5Y9","2 Rockcliff Hts Nw, Calgary, AB, T3G0C7"
266990,4,1981.0,15,2,1,1049.0,931.0,,1997,730000.0,51.1451,-114.239,,206,Rocky Ridge Cove Nw,Calgary,AB,T3G4L1,"206 Rocky Ridge Cove Nw, Calgary, AB, T3G4L1","2 Rockcliff Hts Nw, Calgary, AB, T3G0C7"
265840,4,2284.0,10,3,1,1046.0,1237.0,,2010,900000.0,51.1473,-114.225,,69,Royal Birkdale Drive Nw,Calgary,AB,T3G0B2,"69 Royal Birkdale Drive Nw, Calgary, AB, T3G0B2","2 Rockcliff Hts Nw, Calgary, AB, T3G0C7"
274006,2,1723.0,8,2,1,659.0,672.0,,2005,640000.0,51.0223,-114.098,,3527,15 Street Sw,Calgary,AB,T2T4A4,"3527 15 Street Sw, Calgary, AB, T2T4A4","1633 27 Ave Sw, Calgary, AB, T2T1G7"
276282,5,2209.0,13,3,1,1023.0,1180.0,,2013,1829000.0,51.0231,-114.08,,611,34 Avenue Sw,Calgary,AB,T2S0T3,"611 34 Avenue Sw, Calgary, AB, T2S0T3","1633 27 Ave Sw, Calgary, AB, T2T1G7"
96421,3,1352.0,8,1,1,698.0,654.0,,2001,469900.0,51.1342,-114.239,,282,Tuscany Springs Boulevard Nw,Calgary,AB,T3L2X6,"282 Tuscany Springs Boulevard Nw, Calgary, AB, T3L2X6","2 Rockcliff Hts Nw, Calgary, AB, T3G0C7"
78387,4,2027.0,11,3,1,976.0,1052.0,,2019,1210000.0,51.0145,-114.107,,2006,44 Avenue Sw,Calgary,AB,T2T2N8,"2006 44 Avenue Sw, Calgary, AB, T2T2N8","1633 27 Ave Sw, Calgary, AB, T2T1G7"
64160,3,1190.0,6,1,1,596.0,593.0,,2002,435000.0,51.1349,-114.24,,141,Tuscany Springs Gardens Nw,Calgary,AB,T3L2R4,"141 Tuscany Springs Gardens Nw, Calgary, AB, T3L2R4","2 Rockcliff Hts Nw, Calgary, AB, T3G0C7"
78355,4,1895.0,10,3,1,925.0,969.0,,2004,1090000.0,51.0168,-114.105,,4210,18 Street Sw,Calgary,AB,T2T4V7,"4210 18 Street Sw, Calgary, AB, T2T4V7","1633 27 Ave Sw, Calgary, AB, T2T1G7"
78803,2,2340.0,10,2,1,2340.0,,,2001,1200000.0,51.1339,-114.24,250,223,Tuscany Springs Boulevard Nw,Calgary,AB,T3L2M2,"223 Tuscany Springs Boulevard Nw, Unit 250, Calgary, AB, T3L2M2","2 Rockcliff Hts Nw, Calgary, AB, T3G0C7"
96806,5,3689.0,24,4,1,1796.0,1893.0,,2004,1390000.0,51.1485,-114.245,,6,Rockcliff Landing Nw,Calgary,AB,T3G5Z6,"6 Rockcliff Landing Nw, Calgary, AB, T3G5Z6","2 Rockcliff Hts Nw, Calgary, AB, T3G0C7"
274799,4,1871.0,8,3,1,956.0,915.0,,2010,970000.0,51.0327,-114.126,,2411,26A Street Sw,Calgary,AB,T3E2C4,"2411 26A Street Sw, Calgary, AB, T3E2C4","1633 27 Ave Sw, Calgary, AB, T2T1G7"
275200,3,2963.0,10,3,1,1157.0,1104.0,,1990,1395000.0,51.0358,-114.081,,819,19 Avenue Sw,Calgary,AB,T2T0H6,"819 19 Avenue Sw, Calgary, AB, T2T0H6","1633 27 Ave Sw, Calgary, AB, T2T1G7"
207408,2,1438.0,11,2,1,705.0,732.0,,2004,516000.0,51.1384,-114.233,,178,Royal Manor Nw,Calgary,AB,T3G5T5,"178 Royal Manor Nw, Calgary, AB, T3G5T5","2 Rockcliff Hts Nw, Calgary, AB, T3G0C7"
285815,2,719.0,4,1,,336.0,382.0,,1963,267500.0,51.0591,-114.057,4,810,2 Street Ne,Calgary,AB,T2E3G4,"810 2 Street Ne, Unit 4, Calgary, AB, T2E3G4","824 9A St Ne, Calgary, AB, T2E4L6"
285789,1,537.0,3,1,1,536.0,,,2015,287500.0,51.0474,-114.05,605,550,Riverfront Avenue Se,Calgary,AB,T2G1K5,"550 Riverfront Avenue Se, Unit 605, Calgary, AB, T2G1K5","824 9A St Ne, Calgary, AB, T2E4L6"
284648,4,1856.0,10,3,1,888.0,967.0,,2020,740000.0,51.0632,-114.014,,1224,18A Street Ne,Calgary,AB,T2E4W6,"1224 18A Street Ne, Calgary, AB, T2E4W6","824 9A St Ne, Calgary, AB, T2E4L6"
215438,3,1122.0,10,1,1,541.0,581.0,,2003,592000.0,51.137,-114.244,,42,Tuscany Springs Bay Nw,Calgary,AB,T3L2X7,"42 Tuscany Springs Bay Nw, Calgary, AB, T3L2X7","2 Rockcliff Hts Nw, Calgary, AB, T3G0C7"
276122,4,1929.0,11,3,1,942.0,986.0,,2016,920000.0,51.0238,-114.096,,1525,33 Avenue Sw,Calgary,AB,T2T1Y4,"1525 33 Avenue Sw, Calgary, AB, T2T1Y4","1633 27 Ave Sw, Calgary, AB, T2T1G7"
261155,6,2812.0,18,3,1,1191.0,1621.0,,2013,1240700.0,51.1505,-114.241,,2,Rockcliff Heights Nw,Calgary,AB,T3G0C7,"2 Rockcliff Heights Nw, Calgary, AB, T3G0C7","2 Rockcliff Hts Nw, Calgary, AB, T3G0C7"
276202,4,1952.0,13,3,1,960.0,991.0,,2008,855000.0,51.0238,-114.105,,1909,33 Avenue Sw,Calgary,AB,T2T1Z3,"1909 33 Avenue Sw, Calgary, AB, T2T1Z3","1633 27 Ave Sw, Calgary, AB, T2T1G7"
269651,4,2394.0,13,3,1,1078.0,1316.0,,1999,1750000.0,51.0159,-114.11,,52,Moreuil Court Sw,Calgary,AB,T2T6A9,"52 Moreuil Court Sw, Calgary, AB, T2T6A9","1633 27 Ave Sw, Calgary, AB, T2T1G7"
69149,3,1887.0,8,2,1,786.0,1101.0,,1997,799900.0,51.1257,-114.235,,134,Tuscarora Close Nw,Calgary,AB,T3L2E2,"134 Tuscarora Close Nw, Calgary, AB, T3L2E2","218 88 Arbour Lake Rd Nw, Calgary, AB, T3G0C2"
269269,2,1359.0,8,3,1,558.0,801.0,,1998,645000.0,51.0234,-114.1,,1710,34 Avenue Sw,Calgary,AB,T2T2B6,"1710 34 Avenue Sw, Calgary, AB, T2T2B6","1633 27 Ave Sw, Calgary, AB, T2T1G7"
269529,4,1765.0,13,3,1,1122.0,642.0,,1979,900000.0,51.1103,-114.207,,24,Silver Creek Place Nw,Calgary,AB,T3B5A2,"24 Silver Creek Place Nw, Calgary, AB, T3B5A2","218 88 Arbour Lake Rd Nw, Calgary, AB, T3G0C2"
258653,3,1477.0,9,3,1,687.0,790.0,,2021,760000.0,51.0284,-114.125,,2711,28 Avenue Sw,Calgary,AB,T3E2C8,"2711 28 Avenue Sw, Calgary, AB, T3E2C8","1633 27 Ave Sw, Calgary, AB, T2T1G7"
258501,2,1102.0,7,2,,544.0,557.0,,2004,455000.0,51.0223,-114.108,14,2040,35 Avenue Sw,Calgary,AB,T2T2E1,"2040 35 Avenue Sw, Unit 14, Calgary, AB, T2T2E1","1633 27 Ave Sw, Calgary, AB, T2T1G7"
91646,4,2307.0,17,3,1,1505.0,801.0,,1997,885000.0,51.1296,-114.205,,139,Arbour Wood Close Nw,Calgary,AB,T3G4B3,"139 Arbour Wood Close Nw, Calgary, AB, T3G4B3","218 88 Arbour Lake Rd Nw, Calgary, AB, T3G0C2"
267277,4,1820.0,15,3,1,964.0,855.0,,1982,709000.0,51.1309,-114.189,,28,Hawkfield Place Nw,Calgary,AB,T3G1Z7,"28 Hawkfield Place Nw, Calgary, AB, T3G1Z7","218 88 Arbour Lake Rd Nw, Calgary, AB, T3G0C2"
267440,4,1422.0,8,3,1,720.0,702.0,,1998,770000.0,51.1279,-114.235,,162,Tuscarora Place Nw,Calgary,AB,T3L2G2,"162 Tuscarora Place Nw, Calgary, AB, T3L2G2","218 88 Arbour Lake Rd Nw, Calgary, AB, T3G0C2"
267472,4,1958.0,15,3,1,1077.0,880.0,,1999,945000.0,51.1302,-114.239,,200,Tuscarora Heights Nw,Calgary,AB,T3L2H3,"200 Tuscarora Heights Nw, Calgary, AB, T3L2H3","218 88 Arbour Lake Rd Nw, Calgary, AB, T3G0C2"
78373,4,1333.0,11,2,1,661.0,556.0,,1976,665000.0,51.1128,-114.201,,312,Silverthorn Way Nw,Calgary,AB,T3B4E9,"312 Silverthorn Way Nw, Calgary, AB, T3B4E9","218 88 Arbour Lake Rd Nw, Calgary, AB, T3G0C2"
268858,3,1695.0,10,2,1,1025.0,669.0,,1987,768000.0,51.1191,-114.221,,83,Scenic Hill Close Nw,Calgary,AB,T3L1R3,"83 Scenic Hill Close Nw, Calgary, AB, T3L1R3","218 88 Arbour Lake Rd Nw, Calgary, AB, T3G0C2"
206426,4,3203.0,13,3,1,1578.0,1625.0,,2014,2400000.0,51.0131,-114.105,,1931,45 Avenue Sw,Calgary,AB,T2T2P4,"1931 45 Avenue Sw, Calgary, AB, T2T2P4","1633 27 Ave Sw, Calgary, AB, T2T1G7"
96873,7,2694.0,18,3,1,1285.0,1408.0,,2002,975000.0,51.1389,-114.199,,405,Arbour Lake Drive Nw,Calgary,AB,T3G5G2,"405 Arbour Lake Drive Nw, Calgary, AB, T3G5G2","218 88 Arbour Lake Rd Nw, Calgary, AB, T3G0C2"
270635,4,1731.0,12,3,1,1029.0,702.0,,1978,875000.0,51.1115,-114.198,,80,Silver Ridge Rise Nw,Calgary,AB,T3B4P7,"80 Silver Ridge Rise Nw, Calgary, AB, T3B4P7","218 88 Arbour Lake Rd Nw, Calgary, AB, T3G0C2"
272056,3,1215.0,12,2,1,541.0,674.0,,1981,715300.0,51.1157,-114.21,,31,Scenic Road Nw,Calgary,AB,T3L1A9,"31 Scenic Road Nw, Calgary, AB, T3L1A9","218 88 Arbour Lake Rd Nw, Calgary, AB, T3G0C2"
272673,5,2276.0,18,3,1,1274.0,1001.0,,1999,916500.0,51.1137,-114.219,,233,Scandia Hill Nw,Calgary,AB,T3L1T8,"233 Scandia Hill Nw, Calgary, AB, T3L1T8","218 88 Arbour Lake Rd Nw, Calgary, AB, T3G0C2"
260947,4,2444.0,16,3,1,903.0,1541.0,,2012,1425000.0,51.0162,-114.102,,4225,16A Street Sw,Calgary,AB,T2T4L6,"4225 16A Street Sw, Calgary, AB, T2T4L6","1633 27 Ave Sw, Calgary, AB, T2T1G7"
260969,1,892.0,5,1,,45.0,37.0,,1978,352500.0,51.0355,-114.096,102,2214,14A Street Sw,Calgary,AB,T2T3W8,"2214 14A Street Sw, Unit 102, Calgary, AB, T2T3W8","1633 27 Ave Sw, Calgary, AB, T2T1G7"
274180,3,1973.0,10,2,1,1202.0,771.0,,1980,540000.0,51.1289,-114.191,,24,Hawkwood Crescent Nw,Calgary,AB,T3G1X5,"24 Hawkwood Crescent Nw, Calgary, AB, T3G1X5","218 88 Arbour Lake Rd Nw, Calgary, AB, T3G0C2"
261033,3,2189.0,10,3,1,802.0,1386.0,,2004,852700.0,51.0173,-114.114,,4119,Garrison Boulevard Sw,Calgary,AB,T2T,"4119 Garrison Boulevard Sw, Calgary, AB, T2T","1633 27 Ave Sw, Calgary, AB, T2T1G7"
261174,2,1236.0,6,2,1,605.0,630.0,,2012,565000.0,51.0344,-114.096,,1506,22 Avenue Sw,Calgary,AB,T2T0R7,"1506 22 Avenue Sw, Calgary, AB, T2T0R7","1633 27 Ave Sw, Calgary, AB, T2T1G7"
206601,4,2074.0,13,3,1,924.0,1149.0,,1998,751500.0,51.1272,-114.236,,53,Tuscarora Place Nw,Calgary,AB,T3L2G1,"53 Tuscarora Place Nw, Calgary, AB, T3L2G1","218 88 Arbour Lake Rd Nw, Calgary, AB, T3G0C2"
232561,4,2060.0,13,3,1,975.0,1085.0,,2018,1245000.0,51.0311,-114.126,,2614,27 Street Sw,Calgary,AB,T3E2G5,"2614 27 Street Sw, Calgary, AB, T3E2G5","1633 27 Ave Sw, Calgary, AB, T2T1G7"
267030,4,1834.0,9,2,2,1174.0,659.0,,1993,685000.0,51.1405,-114.192,,129,Arbour Ridge Heights Nw,Calgary,AB,T3G3Z1,"129 Arbour Ridge Heights Nw, Calgary, AB, T3G3Z1","218 88 Arbour Lake Rd Nw, Calgary, AB, T3G0C2"
262048,3,1921.0,7,2,1,1050.0,872.0,,1993,715000.0,51.124,-114.228,,335,Schooner Landing Nw,Calgary,AB,T3L1X6,"335 Schooner Landing Nw, Calgary, AB, T3L1X6","218 88 Arbour Lake Rd Nw, Calgary, AB, T3G0C2"
207449,5,1728.0,10,3,1,996.0,732.0,,1985,705000.0,51.1303,-114.189,,12,Hawkfield Place Nw,Calgary,AB,T3G1Z7,"12 Hawkfield Place Nw, Calgary, AB, T3G1Z7","218 88 Arbour Lake Rd Nw, Calgary, AB, T3G0C2"
207577,5,1995.0,13,4,1,958.0,1037.0,,2009,942600.0,51.0284,-114.117,,2439,28 Avenue Sw,Calgary,AB,T2T1L1,"2439 28 Avenue Sw, Calgary, AB, T2T1L1","1633 27 Ave Sw, Calgary, AB, T2T1G7"
214780,4,1657.0,10,3,1,886.0,770.0,,1981,658000.0,51.1199,-114.187,,83,Ranchridge Way Nw,Calgary,AB,T3G1Z8,"83 Ranchridge Way Nw, Calgary, AB, T3G1Z8","218 88 Arbour Lake Rd Nw, Calgary, AB, T3G0C2"
259041,4,1328.0,10,1,1,719.0,608.0,,1978,572900.0,51.1178,-114.192,,315,Ranch Glen Place Nw,Calgary,AB,T3G1G2,"315 Ranch Glen Place Nw, Calgary, AB, T3G1G2","218 88 Arbour Lake Rd Nw, Calgary, AB, T3G0C2"
207265,5,2065.0,16,3,1,1256.0,808.0,,1992,808000.0,51.1353,-114.187,,118,Arbour Summit Close Nw,Calgary,AB,T3G3W2,"118 Arbour Summit Close Nw, Calgary, AB, T3G3W2","218 88 Arbour Lake Rd Nw, Calgary, AB, T3G0C2"
214776,4,2285.0,11,3,1,1012.0,1273.0,,2011,1119000.0,51.0204,-114.097,,1534,38 Avenue Sw,Calgary,AB,T2T2J9,"1534 38 Avenue Sw, Calgary, AB, T2T2J9","1633 27 Ave Sw, Calgary, AB, T2T1G7"
215439,3,1870.0,11,2,1,1000.0,870.0,,1990,689000.0,51.1234,-114.219,,8967,Scurfield Drive Nw,Calgary,AB,T3L1K6,"8967 Scurfield Drive Nw, Calgary, AB, T3L1K6","218 88 Arbour Lake Rd Nw, Calgary, AB, T3G0C2"
214808,5,3585.0,22,4,1,1801.0,1783.0,,2008,3307000.0,51.0141,-114.084,,4324,Coronation Drive Sw,Calgary,AB,T2S1M2,"4324 Coronation Drive Sw, Calgary, AB, T2S1M2","1633 27 Ave Sw, Calgary, AB, T2T1G7"
215440,4,1850.0,13,3,1,839.0,1010.0,,1998,775000.0,51.1426,-114.199,,82,Arbour Butte Crescent Nw,Calgary,AB,T3G4N6,"82 Arbour Butte Crescent Nw, Calgary, AB, T3G4N6","218 88 Arbour Lake Rd Nw, Calgary, AB, T3G0C2"
206631,3,2592.0,12,3,1,1220.0,1372.0,,2003,996000.0,51.1366,-114.196,,178,Arbour Vista Close Nw,Calgary,AB,T3G5P4,"178 Arbour Vista Close Nw, Calgary, AB, T3G5P4","218 88 Arbour Lake Rd Nw, Calgary, AB, T3G0C2"
257186,3,1539.0,7,2,2,652.0,886.0,,2004,540000.0,51.1422,-114.214,,37,Royal Crest View Nw,Calgary,AB,T3G5W3,"37 Royal Crest View Nw, Calgary, AB, T3G5W3","218 88 Arbour Lake Rd Nw, Calgary, AB, T3G0C2"
257191,3,1789.0,11,3,1,877.0,911.0,,1989,778000.0,51.1208,-114.212,,265,Scurfield Place Nw,Calgary,AB,T3L1T4,"265 Scurfield Place Nw, Calgary, AB, T3L1T4","218 88 Arbour Lake Rd Nw, Calgary, AB, T3G0C2"
232501,4,1974.0,9,3,1,949.0,1025.0,,2024,1550000.0,51.0213,-114.102,,1726,37 Avenue Sw,Calgary,AB,T2T2H3,"1726 37 Avenue Sw, Calgary, AB, T2T2H3","1633 27 Ave Sw, Calgary, AB, T2T1G7"
261054,4,1128.0,9,2,1,557.0,570.0,,1977,581000.0,51.1183,-114.192,,1171,Ranchlands Boulevard Nw,Calgary,AB,T3G1G4,"1171 Ranchlands Boulevard Nw, Calgary, AB, T3G1G4","218 88 Arbour Lake Rd Nw, Calgary, AB, T3G0C2"
206670,4,2155.0,4,3,1,1037.0,1117.0,,2025,1380000.0,51.026,-114.117,,2440,31 Avenue Sw,Calgary,AB,T2T1T8,"2440 31 Avenue Sw, Calgary, AB, T2T1T8","1633 27 Ave Sw, Calgary, AB, T2T1G7"
232523,5,2035.0,5,3,1,972.0,1061.0,,2025,1260000.0,51.026,-114.117,,2442,31 Ave,Calgary,AB,T2T1T8,"2442 31 Ave, Calgary, AB, T2T1T8","1633 27 Ave Sw, Calgary, AB, T2T1G7"
276201,3,1841.0,9,3,1,1028.0,812.0,,1994,735000.0,51.1183,-114.223,,9935,Scurfield Drive Nw,Calgary,AB,T3L1V9,"9935 Scurfield Drive Nw, Calgary, AB, T3L1V9","218 88 Arbour Lake Rd Nw, Calgary, AB, T3G0C2"
262087,4,3863.0,19,5,1,1458.0,2404.0,,2024,2024500.0,51.0269,-114.109,,2038,30 Avenue Sw,Calgary,AB,T2T1R2,"2038 30 Avenue Sw, Calgary, AB, T2T1R2","1633 27 Ave Sw, Calgary, AB, T2T1G7"
91616,3,2041.0,8,3,1,1110.0,931.0,,1987,805000.0,51.0208,-114.106,,3810,19 Street Sw,Calgary,AB,T2T4X7,"3810 19 Street Sw, Calgary, AB, T2T4X7","1633 27 Ave Sw, Calgary, AB, T2T1G7"
64278,2,1120.0,5,2,1,567.0,553.0,,2002,420000.0,51.1348,-114.238,,75,Tuscany Springs Gardens Nw,Calgary,AB,T3L2R3,"75 Tuscany Springs Gardens Nw, Calgary, AB, T3L2R3","2 Rockcliff Hts Nw, Calgary, AB, T3G0C7"
9134,3,1571.0,8,3,1,793.0,777.0,,1993,526000.0,51.1132,-114.212,,212,Scenic Acres Terrace Nw,Calgary,AB,T3L1Y4,"212 Scenic Acres Terrace Nw, Calgary, AB, T3L1Y4","218 88 Arbour Lake Rd Nw, Calgary, AB, T3G0C2"
207480,5,2239.0,14,3,1,982.0,1256.0,,2004,785000.0,50.9781,-113.685,,42,Besse Avenue Nw,Langdon,AB,T0J1X2,"42 Besse Avenue Nw, Langdon, AB, T0J1X2","12 Mcdougall St Nw, Langdon, AB, T0J1X2"
214818,3,2162.0,14,2,1,979.0,1183.0,,2012,785000.0,50.9756,-113.667,,18,Hanson Way Ne,Langdon,AB,T0J1X1,"18 Hanson Way Ne, Langdon, AB, T0J1X1","12 Mcdougall St Nw, Langdon, AB, T0J1X2"
9284,3,2037.0,9,3,1,1258.0,778.0,,1978,665000.0,51.1247,-114.191,,8,Range Way Nw,Calgary,AB,T3G1H4,"8 Range Way Nw, Calgary, AB, T3G1H4","218 88 Arbour Lake Rd Nw, Calgary, AB, T3G0C2"
12262,3,1279.0,8,2,1,647.0,631.0,,1997,615000.0,51.1291,-114.209,,233,Arbour Grove Close Nw,Calgary,AB,T3G4J4,"233 Arbour Grove Close Nw, Calgary, AB, T3G4J4","218 88 Arbour Lake Rd Nw, Calgary, AB, T3G0C2"
267315,4,1744.0,9,3,1,939.0,804.0,,1994,958000.0,51.0256,-114.106,,1927,31 Avenue Sw,Calgary,AB,T2T1T1,"1927 31 Avenue Sw, Calgary, AB, T2T1T1","1633 27 Ave Sw, Calgary, AB, T2T1G7"
12310,3,1349.0,8,2,1,682.0,666.0,,2003,581000.0,51.1363,-114.245,,65,Tuscany Springs Heights Nw,Calgary,AB,T3L2X8,"65 Tuscany Springs Heights Nw, Calgary, AB, T3L2X8","2 Rockcliff Hts Nw, Calgary, AB, T3G0C7"
12289,3,1347.0,7,2,1,690.0,658.0,,1981,649500.0,51.1176,-114.208,,31,Scenic Rise Nw,Calgary,AB,T3L1A6,"31 Scenic Rise Nw, Calgary, AB, T3L1A6","218 88 Arbour Lake Rd Nw, Calgary, AB, T3G0C2"
68605,4,1926.0,11,3,1,839.0,1087.0,,2003,774000.0,51.1461,-114.214,,42,Royal Birch Terrace Nw,Calgary,AB,T3G5N7,"42 Royal Birch Terrace Nw, Calgary, AB, T3G5N7","2 Rockcliff Hts Nw, Calgary, AB, T3G0C7"
96768,5,2472.0,15,3,1,1335.0,1136.0,,2004,1200000.0,51.138,-114.197,,70,Arbour Vista Close Nw,Calgary,AB,T3G5P4,"70 Arbour Vista Close Nw, Calgary, AB, T3G5P4","218 88 Arbour Lake Rd Nw, Calgary, AB, T3G0C2"
96412,3,1478.0,12,2,1,274.0,1203.0,,1982,495000.0,51.1279,-114.187,,8,Hawkville Place Nw,Calgary,AB,T3G2G9,"8 Hawkville Place Nw, Calgary, AB, T3G2G9","218 88 Arbour Lake Rd Nw, Calgary, AB, T3G0C2"
268704,4,1692.0,10,3,1,920.0,771.0,,1949,1225000.0,51.027,-114.104,,1828,30 Avenue Sw,Calgary,AB,T2T1P7,"1828 30 Avenue Sw, Calgary, AB, T2T1P7","1633 27 Ave Sw, Calgary, AB, T2T1G7"
10302,4,2415.0,14,3,1,1337.0,1078.0,,1994,959500.0,51.1248,-114.184,,89,Hawkside Road Nw,Calgary,AB,T3G3R9,"89 Hawkside Road Nw, Calgary, AB, T3G3R9","218 88 Arbour Lake Rd Nw, Calgary, AB, T3G0C2"
12303,2,1188.0,6,2,1,625.0,562.0,,2001,458000.0,51.1341,-114.238,,39,Tuscany Springs Gardens Nw,Calgary,AB,T3L2R3,"39 Tuscany Springs Gardens Nw, Calgary, AB, T3L2R3","2 Rockcliff Hts Nw, Calgary, AB, T3G0C7"
64262,3,1209.0,13,1,1,543.0,665.0,,2004,405000.0,51.1533,-114.233,,140,Royal Oak Gardens Nw,Calgary,AB,T3G5S5,"140 Royal Oak Gardens Nw, Calgary, AB, T3G5S5","2 Rockcliff Hts Nw, Calgary, AB, T3G0C7"
207499,4,1957.0,9,3,1,803.0,1154.0,,1998,748000.0,51.1367,-114.205,,43,Arbour Crest Way Nw,Calgary,AB,T3G4L5,"43 Arbour Crest Way Nw, Calgary, AB, T3G4L5","218 88 Arbour Lake Rd Nw, Calgary, AB, T3G0C2"
269260,4,1766.0,12,3,1,884.0,881.0,,2007,1076000.0,51.0128,-114.102,,4620,16A Street Sw,Calgary,AB,T2T4L7,"4620 16A Street Sw, Calgary, AB, T2T4L7","1633 27 Ave Sw, Calgary, AB, T2T1G7"
66724,5,1321.0,16,2,1,853.0,457.0,,1982,600000.0,51.1258,-114.189,,3,Hawkwood Drive Nw,Calgary,AB,T3G1Z2,"3 Hawkwood Drive Nw, Calgary, AB, T3G1Z2","218 88 Arbour Lake Rd Nw, Calgary, AB, T3G0C2"
10336,3,2464.0,10,3,1,1963.0,501.0,,2012,1399900.0,51.149,-114.246,,5,Rockyvale Green Nw,Calgary,AB,T3G0C7,"5 Rockyvale Green Nw, Calgary, AB, T3G0C7","2 Rockcliff Hts Nw, Calgary, AB, T3G0C7"
91664,4,2319.0,12,3,1,1019.0,1299.0,,1998,920000.0,51.1365,-114.21,,31,Arbour Crest Rise Nw,Calgary,AB,T3G4L3,"31 Arbour Crest Rise Nw, Calgary, AB, T3G4L3","218 88 Arbour Lake Rd Nw, Calgary, AB, T3G0C2"
286760,4,1667.0,15,2,1,998.0,669.0,,1981,735000.0,51.1306,-114.19,,75,Hawkfield Crescent Nw,Calgary,AB,T3G1Z4,"75 Hawkfield Crescent Nw, Calgary, AB, T3G1Z4","218 88 Arbour Lake Rd Nw, Calgary, AB, T3G0C2"
284928,3,1983.0,12,2,1,1096.0,886.0,,1989,725000.0,51.1234,-114.221,,42,Scanlon Hill Nw,Calgary,AB,T3L1L2,"42 Scanlon Hill Nw, Calgary, AB, T3L1L2","218 88 Arbour Lake Rd Nw, Calgary, AB, T3G0C2"
277214,4,1941.0,10,3,1,798.0,1142.0,,1998,830000.0,51.1366,-114.208,,68,Arbour Crest Court Nw,Calgary,AB,T3G4T5,"68 Arbour Crest Court Nw, Calgary, AB, T3G4T5","218 88 Arbour Lake Rd Nw, Calgary, AB, T3G0C2"
282139,4,1441.0,10,2,1,736.0,704.0,,2003,610000.0,51.135,-114.243,,173,Tuscany Springs Way Nw,Calgary,AB,T3L2X5,"173 Tuscany Springs Way Nw, Calgary, AB, T3L2X5","2 Rockcliff Hts Nw, Calgary, AB, T3G0C7"
277422,4,2363.0,17,2,2,1286.0,1076.0,,1996,1010000.0,51.1224,-114.228,,357,Schooner Cove Nw,Calgary,AB,T3L1Z3,"357 Schooner Cove Nw, Calgary, AB, T3L1Z3","218 88 Arbour Lake Rd Nw, Calgary, AB, T3G0C2"
94745,3,1143.0,7,1,1,575.0,567.0,,1982,385000.0,51.1256,-114.191,,32,Range Gardens Nw,Calgary,AB,T3G1Y7,"32 Range Gardens Nw, Calgary, AB, T3G1Y7","218 88 Arbour Lake Rd Nw, Calgary, AB, T3G0C2"
91572,4,2030.0,9,4,1,909.0,1121.0,,1987,849000.0,51.1207,-114.21,,135,Scenic Cove Bay Nw,Calgary,AB,T3L1P7,"135 Scenic Cove Bay Nw, Calgary, AB, T3L1P7","218 88 Arbour Lake Rd Nw, Calgary, AB, T3G0C2"
262390,3,1274.0,9,3,1,634.0,640.0,,2013,750000.0,51.0117,-114.1,,4714,16 Street Sw,Calgary,AB,T2T4J4,"4714 16 Street Sw, Calgary, AB, T2T4J4","1633 27 Ave Sw, Calgary, AB, T2T1G7"
284222,4,1849.0,13,2,1,997.0,851.0,,1996,785000.0,51.1213,-114.227,,735,Schooner Cove Nw,Calgary,AB,T3L1Y8,"735 Schooner Cove Nw, Calgary, AB, T3L1Y8","218 88 Arbour Lake Rd Nw, Calgary, AB, T3G0C2"
206054,6,4151.0,18,6,1,2265.0,1886.0,,1984,2548000.0,51.017,-114.081,,714,Lansdowne Avenue Sw,Calgary,AB,T2S1A1,"714 Lansdowne Avenue Sw, Calgary, AB, T2S1A1","1633 27 Ave Sw, Calgary, AB, T2T1G7"
94826,3,1182.0,9,1,1,599.0,582.0,,1982,377000.0,51.1253,-114.191,,43,Range Gardens Nw,Calgary,AB,T3G1P8,"43 Range Gardens Nw, Calgary, AB, T3G1P8","218 88 Arbour Lake Rd Nw, Calgary, AB, T3G0C2"
262768,4,2759.0,17,3,1,1313.0,1445.0,,2018,2116150.0,51.0173,-114.105,,4121,18 Street Sw,Calgary,AB,T2T4V8,"4121 18 Street Sw, Calgary, AB, T2T4V8","1633 27 Ave Sw, Calgary, AB, T2T1G7"
205977,2,1408.0,5,2,,1195.0,213.0,,2009,645000.0,51.0367,-114.075,407,1730,5A Street Sw,Calgary,AB,T2S2E9,"1730 5A Street Sw, Unit 407, Calgary, AB, T2S2E9","1633 27 Ave Sw, Calgary, AB, T2T1G7"
284259,4,1836.0,10,3,1,817.0,1019.0,,2003,829000.0,51.1438,-114.221,,5,Royal Birch Heights Nw,Calgary,AB,T3G5R1,"5 Royal Birch Heights Nw, Calgary, AB, T3G5R1","218 88 Arbour Lake Rd Nw, Calgary, AB, T3G0C2"
284706,3,1372.0,9,2,1,658.0,713.0,,1981,609000.0,51.1183,-114.209,,247,Scenic Way Nw,Calgary,AB,T3L1B6,"247 Scenic Way Nw, Calgary, AB, T3L1B6","218 88 Arbour Lake Rd Nw, Calgary, AB, T3G0C2"
288011,4,1311.0,9,2,1,656.0,655.0,,2002,670000.0,51.132,-114.222,,171,Arbour Meadows Close Nw,Calgary,AB,T3G5J3,"171 Arbour Meadows Close Nw, Calgary, AB, T3G5J3","218 88 Arbour Lake Rd Nw, Calgary, AB, T3G0C2"
205804,4,2271.0,11,3,2,865.0,1405.0,,2018,1220000.0,51.0297,-114.107,,2006,27 Avenue Sw,Calgary,AB,T2T1H6,"2006 27 Avenue Sw, Calgary, AB, T2T1H6","1633 27 Ave Sw, Calgary, AB, T2T1G7"
268793,4,1706.0,12,3,1,835.0,870.0,,2004,766000.0,51.0344,-114.113,,2227,21 Avenue Sw,Calgary,AB,T2T0P2,"2227 21 Avenue Sw, Calgary, AB, T2T0P2","1633 27 Ave Sw, Calgary, AB, T2T1G7"
91620,4,2390.0,17,3,1,1058.0,1331.0,,2006,805500.0,50.9614,-113.668,,429,Boulder Creek Way Se,Langdon,AB,T0J1X3,"429 Boulder Creek Way Se, Langdon, AB, T0J1X3","260 Boulder Creek Cres, Langdon, AB, T0J1X3"
282455,2,1278.0,5,2,1,576.0,570.0,,2024,457450.0,51.1417,-114.256,,92,Tuscany Summit Square Nw,Calgary,AB,T3L0G1,"92 Tuscany Summit Square Nw, Calgary, AB, T3L0G1","2 Rockcliff Hts Nw, Calgary, AB, T3G0C7"
278571,4,1918.0,12,2,1,870.0,1047.0,,2005,705000.0,50.8822,-113.961,,519,Auburn Bay Heights Se,Calgary,AB,T3M0A5,"519 Auburn Bay Heights Se, Calgary, AB, T3M0A5","119 110 Auburn Meadows View Se, Calgary,, AB, T3M2M2"
273999,5,1726.0,12,3,1,967.0,759.0,,2007,705000.0,50.8975,-113.968,,250,Autumn Circle Se,Calgary,AB,T3M0J8,"250 Autumn Circle Se, Calgary, AB, T3M0J8","119 110 Auburn Meadows View Se, Calgary,, AB, T3M2M2"
274000,4,1704.0,11,3,1,858.0,845.0,,2013,679500.0,50.9031,-113.922,,34,Marquis Common Se,Calgary,AB,T3M1N8,"34 Marquis Common Se, Calgary, AB, T3M1N8","119 110 Auburn Meadows View Se, Calgary,, AB, T3M2M2"
274636,3,1536.0,12,2,1,746.0,790.0,,2025,548500.0,50.884,-113.927,,191,Bartlett Crescent Se,Calgary,AB,T3M2N8,"191 Bartlett Crescent Se, Calgary, AB, T3M2N8","119 110 Auburn Meadows View Se, Calgary,, AB, T3M2M2"
274764,3,1936.0,10,2,1,858.0,1078.0,,2025,667500.0,50.883,-113.929,,47,Bartlett Row Se,Calgary,AB,T3M2N8,"47 Bartlett Row Se, Calgary, AB, T3M2N8","119 110 Auburn Meadows View Se, Calgary,, AB, T3M2M2"
276312,4,2277.0,10,3,1,948.0,1329.0,,2011,800000.0,50.8961,-113.956,,134,Auburn Glen Way Se,Calgary,AB,T3M0M7,"134 Auburn Glen Way Se, Calgary, AB, T3M0M7","119 110 Auburn Meadows View Se, Calgary,, AB, T3M2M2"
276541,5,1741.0,11,3,1,932.0,809.0,,2007,672000.0,50.9103,-113.954,,45,Elgin Meadows Green Se,Calgary,AB,T2Z0L9,"45 Elgin Meadows Green Se, Calgary, AB, T2Z0L9","119 110 Auburn Meadows View Se, Calgary,, AB, T3M2M2"
277173,4,2449.0,14,3,1,1092.0,1355.0,,2014,1169000.0,50.8923,-113.951,,36,Auburn Springs Cove Se,Calgary,AB,T3M2C2,"36 Auburn Springs Cove Se, Calgary, AB, T3M2C2","119 110 Auburn Meadows View Se, Calgary,, AB, T3M2M2"
278353,4,2951.0,13,3,1,1496.0,1453.0,,2008,1499000.0,50.891,-113.964,,27,Auburn Sound Cove Se,Calgary,AB,T3M0R7,"27 Auburn Sound Cove Se, Calgary, AB, T3M0R7","119 110 Auburn Meadows View Se, Calgary,, AB, T3M2M2"
278457,3,1501.0,9,2,1,790.0,712.0,,2014,620177.0,50.8991,-113.947,,253,Auburn Meadows Way Se,Calgary,AB,T3M0T5,"253 Auburn Meadows Way Se, Calgary, AB, T3M0T5","119 110 Auburn Meadows View Se, Calgary,, AB, T3M2M2"
278524,5,2911.0,18,3,1,1232.0,1678.0,,2011,1150000.0,50.893,-113.966,,79,Auburn Sound Circle Se,Calgary,AB,T3M0G6,"79 Auburn Sound Circle Se, Calgary, AB, T3M0G6","119 110 Auburn Meadows View Se, Calgary,, AB, T3M2M2"
206232,3,1683.0,9,2,2,803.0,879.0,,1998,700000.0,50.9346,-113.979,,3783,Douglas Ridge Link Se,Calgary,AB,T2Z3H7,"3783 Douglas Ridge Link Se, Calgary, AB, T2Z3H7","3666 Douglas Woods Hts Se, Calgary, AB, T2Z2G4"
273978,3,2907.0,10,3,1,1122.0,1784.0,,2011,1142500.0,50.902,-113.932,,43,Mahogany Manor Se,Calgary,AB,T3M0Y3,"43 Mahogany Manor Se, Calgary, AB, T3M0Y3","119 110 Auburn Meadows View Se, Calgary,, AB, T3M2M2"
279395,5,1678.0,15,3,1,851.0,826.0,,2011,635000.0,50.9038,-113.933,,205,Mahogany Heights Se,Calgary,AB,T3M0X7,"205 Mahogany Heights Se, Calgary, AB, T3M0X7","119 110 Auburn Meadows View Se, Calgary,, AB, T3M2M2"
206466,4,2189.0,11,3,1,1071.0,953.0,,1990,885000.0,50.9456,-113.997,,204,Douglas Woods Drive Se,Calgary,AB,T2Z2E7,"204 Douglas Woods Drive Se, Calgary, AB, T2Z2E7","3666 Douglas Woods Hts Se, Calgary, AB, T2Z2G4"
206496,7,1857.0,14,3,1,1033.0,824.0,,1993,690000.0,50.9411,-114.003,,72,Douglas Shore Close Se,Calgary,AB,T2Z2K8,"72 Douglas Shore Close Se, Calgary, AB, T2Z2K8","3666 Douglas Woods Hts Se, Calgary, AB, T2Z2G4"
206635,4,1856.0,16,3,1,934.0,922.0,,1996,650000.0,50.9385,-113.978,,128,Douglas Ridge Green Se,Calgary,AB,T2Z2T3,"128 Douglas Ridge Green Se, Calgary, AB, T2Z2T3","3666 Douglas Woods Hts Se, Calgary, AB, T2Z2G4"
215491,4,1805.0,4,3,1,1082.0,721.0,,1989,680000.0,50.9491,-114.009,,218,Douglasbank Green Se,Calgary,AB,T2Z2C8,"218 Douglasbank Green Se, Calgary, AB, T2Z2C8","3666 Douglas Woods Hts Se, Calgary, AB, T2Z2G4"
215495,4,2075.0,15,3,1,1158.0,917.0,,1998,845000.0,50.9309,-113.985,,174,Mt Douglas Point Se,Calgary,AB,T2Z3J7,"174 Mt Douglas Point Se, Calgary, AB, T2Z3J7","3666 Douglas Woods Hts Se, Calgary, AB, T2Z2G4"
280591,3,2121.0,9,2,1,972.0,1148.0,,2009,749900.0,50.8973,-113.956,,28,Auburn Glen Lane Se,Calgary,AB,T3M0M8,"28 Auburn Glen Lane Se, Calgary, AB, T3M0M8","119 110 Auburn Meadows View Se, Calgary,, AB, T3M2M2"
257096,2,1461.0,8,2,1,565.0,896.0,,2021,509900.0,50.9568,-114.003,,59,Les Jardins Park Se,Calgary,AB,T2C0Z5,"59 Les Jardins Park Se, Calgary, AB, T2C0Z5","3666 Douglas Woods Hts Se, Calgary, AB, T2Z2G4"
259326,3,1929.0,10,2,1,842.0,1066.0,,1998,705000.0,50.9316,-113.986,,200,Mount Douglas Point Se,Calgary,AB,T2Z3J6,"200 Mount Douglas Point Se, Calgary, AB, T2Z3J6","3666 Douglas Woods Hts Se, Calgary, AB, T2Z2G4"
260587,5,2590.0,18,3,1,1253.0,1337.0,,1988,750000.0,50.9401,-113.999,,123,Douglas Park Close Se,Calgary,AB,T2Z2B4,"123 Douglas Park Close Se, Calgary, AB, T2Z2B4","3666 Douglas Woods Hts Se, Calgary, AB, T2Z2G4"
273987,4,2545.0,13,3,1,1093.0,1451.0,,2015,1055000.0,50.8899,-113.938,,22,Mahogany Passage Se,Calgary,AB,T1X,"22 Mahogany Passage Se, Calgary, AB, T1X","119 110 Auburn Meadows View Se, Calgary,, AB, T3M2M2"
273977,3,1504.0,8,2,1,791.0,711.0,,2016,622000.0,50.8984,-113.945,,43,Auburn Meadows Gardens Se,Calgary,AB,T3M0T5,"43 Auburn Meadows Gardens Se, Calgary, AB, T3M0T5","119 110 Auburn Meadows View Se, Calgary,, AB, T3M2M2"
282316,3,2104.0,10,2,1,875.0,1228.0,,2016,775000.0,50.8976,-113.949,,184,Auburn Glen Close Se,Calgary,AB,T3M2P4,"184 Auburn Glen Close Se, Calgary, AB, T3M2P4","119 110 Auburn Meadows View Se, Calgary,, AB, T3M2M2"
268831,5,4294.0,20,5,1,1986.0,2308.0,,2021,2563000.0,50.8938,-113.927,,580,Marine Drive Se,Calgary,AB,T3M2Z6,"580 Marine Drive Se, Calgary, AB, T3M2Z6","119 110 Auburn Meadows View Se, Calgary,, AB, T3M2M2"
95668,2,1223.0,6,1,1,551.0,671.0,,1998,413000.0,50.9313,-113.982,,144,Mt Aberdeen Manor Se,Calgary,AB,T2Z3N8,"144 Mt Aberdeen Manor Se, Calgary, AB, T2Z3N8","3666 Douglas Woods Hts Se, Calgary, AB, T2Z2G4"
97968,3,1879.0,8,2,1,993.0,885.0,,1994,662500.0,50.9521,-114.01,,98,Douglas Glen Green Se,Calgary,AB,T2Z2M9,"98 Douglas Glen Green Se, Calgary, AB, T2Z2M9","3666 Douglas Woods Hts Se, Calgary, AB, T2Z2G4"
78870,2,1439.0,7,2,1,266.0,1128.0,,2023,546000.0,50.9568,-114.003,,47,Les Jardins Park Se,Calgary,AB,T2C0Z5,"47 Les Jardins Park Se, Calgary, AB, T2C0Z5","3666 Douglas Woods Hts Se, Calgary, AB, T2Z2G4"
267266,3,1709.0,8,2,1,737.0,839.0,,2011,644000.0,50.8931,-113.971,,58,Autumn View Se,Calgary,AB,T3M0H2,"58 Autumn View Se, Calgary, AB, T3M0H2","119 110 Auburn Meadows View Se, Calgary,, AB, T3M2M2"
267484,4,1113.0,9,2,1,538.0,575.0,,2007,533000.0,50.9045,-113.961,,305,Elgin Point Se,Calgary,AB,T2Z4Z9,"305 Elgin Point Se, Calgary, AB, T2Z4Z9","119 110 Auburn Meadows View Se, Calgary,, AB, T3M2M2"
267572,3,2090.0,11,1,2,929.0,1161.0,,2025,679900.0,50.8822,-113.927,,49,Bartlett Way Se,Calgary,AB,T3M2N8,"49 Bartlett Way Se, Calgary, AB, T3M2N8","119 110 Auburn Meadows View Se, Calgary,, AB, T3M2M2"
268014,4,1563.0,13,3,1,842.0,720.0,,2007,652000.0,50.9057,-113.96,,131,Elgin Terrace Se,Calgary,AB,T2Z,"131 Elgin Terrace Se, Calgary, AB, T2Z","119 110 Auburn Meadows View Se, Calgary,, AB, T3M2M2"
206027,4,1963.0,12,2,1,1006.0,957.0,,1989,820000.0,50.9453,-114.01,,343,Douglasbank Place Se,Calgary,AB,T2Z2C2,"343 Douglasbank Place Se, Calgary, AB, T2Z2C2","3666 Douglas Woods Hts Se, Calgary, AB, T2Z2G4"
269321,4,2393.0,14,3,1,929.0,1463.0,,2014,910000.0,50.8964,-113.923,,102,Masters Point Se,Calgary,AB,T3M2B3,"102 Masters Point Se, Calgary, AB, T3M2B3","119 110 Auburn Meadows View Se, Calgary,, AB, T3M2M2"
268759,4,1126.0,9,2,1,543.0,582.0,,2007,520000.0,50.9043,-113.959,,52,Elgin Meadows View Se,Calgary,AB,T2Z0E9,"52 Elgin Meadows View Se, Calgary, AB, T2Z0E9","119 110 Auburn Meadows View Se, Calgary,, AB, T3M2M2"
268867,6,2414.0,15,3,1,1008.0,1406.0,,2014,899000.0,50.8969,-113.92,,24,Masters Common Se,Calgary,AB,T3M2B4,"24 Masters Common Se, Calgary, AB, T3M2B4","119 110 Auburn Meadows View Se, Calgary,, AB, T3M2M2"
273777,3,1395.0,7,2,1,725.0,683.0,,2006,579000.0,50.9085,-113.931,,250,Copperstone Grove Se,Calgary,AB,T2Z4X7,"250 Copperstone Grove Se, Calgary, AB, T2Z4X7","119 110 Auburn Meadows View Se, Calgary,, AB, T3M2M2"
269240,4,2247.0,13,3,1,967.0,1281.0,,2014,833000.0,50.8901,-113.951,,32,Auburn Springs Manor Se,Calgary,AB,T3M1Y3,"32 Auburn Springs Manor Se, Calgary, AB, T3M1Y3","119 110 Auburn Meadows View Se, Calgary,, AB, T3M2M2"
269536,2,1154.0,9,2,1,558.0,595.0,,2004,470000.0,50.9028,-113.97,,302,Elgin View Se,Calgary,AB,T2Z4N6,"302 Elgin View Se, Calgary, AB, T2Z4N6","119 110 Auburn Meadows View Se, Calgary,, AB, T3M2M2"
280340,2,1879.0,9,2,1,1879.0,,,2018,2275000.0,50.8979,-113.935,301,17,Mahogany Circle Se,Calgary,AB,T3M1N9,"17 Mahogany Circle Se, Unit 301, Calgary, AB, T3M1N9","119 110 Auburn Meadows View Se, Calgary,, AB, T3M2M2"
271783,5,2082.0,13,3,1,1055.0,1025.0,,2010,730000.0,50.9074,-113.955,,34,Elgin Meadows Road Se,Calgary,AB,T2Z0S1,"34 Elgin Meadows Road Se, Calgary, AB, T2Z0S1","119 110 Auburn Meadows View Se, Calgary,, AB, T3M2M2"
271799,2,1172.0,8,2,1,323.0,850.0,,2004,415000.0,50.908,-113.942,,107,Copperfield Lane Se,Calgary,AB,T2Z4S9,"107 Copperfield Lane Se, Calgary, AB, T2Z4S9","119 110 Auburn Meadows View Se, Calgary,, AB, T3M2M2"
272543,3,1472.0,9,3,1,801.0,671.0,,2007,618000.0,50.8861,-113.968,,71,Auburn Bay Manor Se,Calgary,AB,T3M0C5,"71 Auburn Bay Manor Se, Calgary, AB, T3M0C5","119 110 Auburn Meadows View Se, Calgary,, AB, T3M2M2"
273204,4,1127.0,11,2,1,544.0,582.0,,2005,540000.0,50.9033,-113.965,,343,Elgin Place Se,Calgary,AB,T2Z4W1,"343 Elgin Place Se, Calgary, AB, T2Z4W1","119 110 Auburn Meadows View Se, Calgary,, AB, T3M2M2"
273475,3,1229.0,10,2,1,629.0,598.0,,2011,481000.0,50.8848,-113.955,,307,Auburn Bay Square Se,Calgary,AB,T3M0E9,"307 Auburn Bay Square Se, Calgary, AB, T3M0E9","119 110 Auburn Meadows View Se, Calgary,, AB, T3M2M2"
273490,3,1361.0,7,2,1,680.0,680.0,,2010,580000.0,50.8895,-113.968,,24,Auburn Bay Crescent Se,Calgary,AB,T3M0K4,"24 Auburn Bay Crescent Se, Calgary, AB, T3M0K4","119 110 Auburn Meadows View Se, Calgary,, AB, T3M2M2"
273492,4,2578.0,11,2,1,1154.0,1424.0,,2014,1055000.0,50.8993,-113.923,,67,Marquis Cove Se,Calgary,AB,T3M1V8,"67 Marquis Cove Se, Calgary, AB, T3M1V8","119 110 Auburn Meadows View Se, Calgary,, AB, T3M2M2"
262090,4,1811.0,12,3,1,961.0,849.0,,1997,650000.0,50.9361,-113.978,,292,Douglas Ridge Green Se,Calgary,AB,T2Z3A7,"292 Douglas Ridge Green Se, Calgary, AB, T2Z3A7","3666 Douglas Woods Hts Se, Calgary, AB, T2Z2G4"
282331,4,1315.0,12,3,1,638.0,675.0,,2016,596000.0,50.8979,-113.945,,79,Auburn Meadows Gardens Se,Calgary,AB,T3M0T5,"79 Auburn Meadows Gardens Se, Calgary, AB, T3M0T5","119 110 Auburn Meadows View Se, Calgary,, AB, T3M2M2"
266532,2,1125.0,6,2,1,544.0,582.0,,2004,510000.0,50.903,-113.969,,343,Elgin View Se,Calgary,AB,T2Z4N5,"343 Elgin View Se, Calgary, AB, T2Z4N5","119 110 Auburn Meadows View Se, Calgary,, AB, T3M2M2"
287587,2,1276.0,9,2,1,353.0,923.0,,2005,435000.0,50.9204,-114.122,,182,Everhollow Heights Sw,Calgary,AB,T2Y5B4,"182 Everhollow Heights Sw, Calgary, AB, T2Y5B4","299 Everoak Dr Sw, Calgary, AB, T2Y0A5"
300348,4,2141.0,13,3,1,971.0,1168.0,,2011,825000.0,50.8939,-113.957,,122,Auburn Glen Common Se,Calgary,AB,T3M0N2,"122 Auburn Glen Common Se, Calgary, AB, T3M0N2","119 110 Auburn Meadows View Se, Calgary,, AB, T3M2M2"
97924,3,2061.0,11,2,1,1036.0,1025.0,,2005,676500.0,50.9681,-113.678,,115,Railway Crescent Se,Langdon,AB,T0J1X1,"115 Railway Crescent Se, Langdon, AB, T0J1X1","12 Mcdougall St Nw, Langdon, AB, T0J1X2"
50224,3,2058.0,7,2,1,1217.0,841.0,,2013,670000.0,50.9754,-113.667,,22,Hanson Way Ne,Langdon,AB,T0J1X1,"22 Hanson Way Ne, Langdon, AB, T0J1X1","12 Mcdougall St Nw, Langdon, AB, T0J1X2"
50236,4,2381.0,10,2,1,1084.0,1296.0,,2024,761525.0,50.9768,-113.693,,120,Brander Ave,Langdon,AB,T0J1X2,"120 Brander Ave, Langdon, AB, T0J1X2","12 Mcdougall St Nw, Langdon, AB, T0J1X2"
50259,3,2392.0,9,2,1,1073.0,1318.0,,2024,744000.0,50.9752,-113.665,,58,Hanson Drive Ne,Langdon,AB,T0J1X1,"58 Hanson Drive Ne, Langdon, AB, T0J1X1","12 Mcdougall St Nw, Langdon, AB, T0J1X2"
50248,4,2306.0,15,3,1,1015.0,1291.0,,2012,859900.0,50.9793,-113.666,,175,Hanson Drive Ne,Langdon,AB,T0J1X1,"175 Hanson Drive Ne, Langdon, AB, T0J1X1","12 Mcdougall St Nw, Langdon, AB, T0J1X2"
50268,3,1492.0,10,2,2,720.0,772.0,,2010,433900.0,50.978,-113.681,,45,Arbours Circle Nw,Langdon,AB,T0J1X2,"45 Arbours Circle Nw, Langdon, AB, T0J1X2","12 Mcdougall St Nw, Langdon, AB, T0J1X2"
301636,3,1313.0,7,1,1,697.0,615.0,,1999,564500.0,50.9029,-114.109,,79,Bridleglen Manor Sw,Calgary,AB,T2Y3X1,"79 Bridleglen Manor Sw, Calgary, AB, T2Y3X1","299 Everoak Dr Sw, Calgary, AB, T2Y0A5"
290572,4,2325.0,13,3,1,1069.0,1256.0,,2006,849900.0,50.9147,-114.111,,100,Everoak Close Sw,Calgary,AB,T2Y0C3,"100 Everoak Close Sw, Calgary, AB, T2Y0C3","299 Everoak Dr Sw, Calgary, AB, T2Y0A5"
290245,3,1221.0,8,2,1,619.0,601.0,,2005,560000.0,50.9041,-114.121,,103,Bridlecrest Manor Sw,Calgary,AB,T2Y4Y3,"103 Bridlecrest Manor Sw, Calgary, AB, T2Y4Y3","299 Everoak Dr Sw, Calgary, AB, T2Y0A5"
286907,3,1379.0,13,2,2,704.0,674.0,,2005,575000.0,50.9082,-114.124,,43,Everglen Rise Sw,Calgary,AB,T2Y4Z4,"43 Everglen Rise Sw, Calgary, AB, T2Y4Z4","299 Everoak Dr Sw, Calgary, AB, T2Y0A5"
290278,2,1175.0,7,2,1,591.0,591.0,,2015,535000.0,50.8973,-113.947,,25,Auburn Meadows Link Se,Calgary,AB,T3M2E6,"25 Auburn Meadows Link Se, Calgary, AB, T3M2E6","119 110 Auburn Meadows View Se, Calgary,, AB, T3M2M2"
290557,3,2186.0,3,2,2,990.0,1196.0,,2003,770000.0,51.032,-113.824,,673,Victoria Beach Bay,Chestermere,AB,T1X1H9,"673 Victoria Beach Bay, Chestermere, AB, T1X1H9","229 Sandpiper Cres, Chestermere, AB, T1X0Y4"
284996,4,1914.0,11,3,1,810.0,1103.0,,1996,720000.0,50.9041,-114.094,,282,Somerside Park Sw,Calgary,AB,T2Y3G6,"282 Somerside Park Sw, Calgary, AB, T2Y3G6","299 Everoak Dr Sw, Calgary, AB, T2Y0A5"
279304,4,1720.0,13,3,1,695.0,1024.0,,2005,642000.0,50.9186,-114.126,,33,Everwoods Close Sw,Calgary,AB,T2Y4R6,"33 Everwoods Close Sw, Calgary, AB, T2Y4R6","299 Everoak Dr Sw, Calgary, AB, T2Y0A5"
279185,3,1418.0,8,1,1,738.0,679.0,,2004,540000.0,50.9131,-114.118,,697,Evermeadow Road Sw,Calgary,AB,T2Y4W7,"697 Evermeadow Road Sw, Calgary, AB, T2Y4W7","299 Everoak Dr Sw, Calgary, AB, T2Y0A5"
273211,4,2452.0,14,3,1,1069.0,1382.0,,2016,772000.0,51.0168,-113.814,,137,Sandpiper Point,Chestermere,AB,T1X0V5,"137 Sandpiper Point, Chestermere, AB, T1X0V5","229 Sandpiper Cres, Chestermere, AB, T1X0Y4"
274115,4,2242.0,11,2,1,1222.0,1019.0,,1978,969500.0,51.0259,-113.813,,881,East Lakeview,Chestermere,AB,T1X1B1,"881 East Lakeview, Chestermere, AB, T1X1B1","229 Sandpiper Cres, Chestermere, AB, T1X0Y4"
270364,6,3061.0,18,3,1,1412.0,1648.0,,2024,1055000.0,51.0189,-113.83,,4,South Shore Mount,Chestermere,AB,T1X2Y3,"4 South Shore Mount, Chestermere, AB, T1X2Y3","229 Sandpiper Cres, Chestermere, AB, T1X0Y4"
277430,5,1530.0,10,3,1,764.0,766.0,,2003,595000.0,50.8987,-114.11,,317,Bridleridge Way Sw,Calgary,AB,T2Y4M5,"317 Bridleridge Way Sw, Calgary, AB, T2Y4M5","299 Everoak Dr Sw, Calgary, AB, T2Y0A5"
276211,4,1444.0,12,3,1,735.0,708.0,,1999,590000.0,50.9041,-114.094,,39,Somerside Common Sw,Calgary,AB,T2Y3M9,"39 Somerside Common Sw, Calgary, AB, T2Y3M9","299 Everoak Dr Sw, Calgary, AB, T2Y0A5"
262881,4,2485.0,14,3,1,1117.0,1367.0,,2006,900000.0,51.0199,-113.833,,356,Rainbow Falls Way,Chestermere,AB,T1X1W5,"356 Rainbow Falls Way, Chestermere, AB, T1X1W5","229 Sandpiper Cres, Chestermere, AB, T1X0Y4"
290429,4,1612.0,12,3,1,696.0,915.0,,2013,692000.0,50.8893,-113.944,,233,Auburn Crest Way Se,Calgary,AB,T3M1T6,"233 Auburn Crest Way Se, Calgary, AB, T3M1T6","119 110 Auburn Meadows View Se, Calgary,, AB, T3M2M2"
290313,3,1194.0,7,2,1,564.0,629.0,,2010,592000.0,50.8947,-113.972,,209,Autumn Green Se,Calgary,AB,T3M0H5,"209 Autumn Green Se, Calgary, AB, T3M0H5","119 110 Auburn Meadows View Se, Calgary,, AB, T3M2M2"
269736,3,1548.0,9,2,1,721.0,826.0,,1998,618000.0,50.9336,-113.979,,13094,Douglas Ridge Grove Se,Calgary,AB,T2Z3C4,"13094 Douglas Ridge Grove Se, Calgary, AB, T2Z3C4","3666 Douglas Woods Hts Se, Calgary, AB, T2Z2G4"
282854,2,1430.0,7,2,1,565.0,565.0,,2024,530000.0,50.9568,-114.003,,27,Les Jardins Park Se,Calgary,AB,T2C0Z5,"27 Les Jardins Park Se, Calgary, AB, T2C0Z5","3666 Douglas Woods Hts Se, Calgary, AB, T2Z2G4"
282374,3,1224.0,8,2,1,622.0,601.0,,2009,479750.0,50.8912,-113.97,,111,Auburn Bay Common Se,Calgary,AB,T3M,"111 Auburn Bay Common Se, Calgary, AB, T3M","119 110 Auburn Meadows View Se, Calgary,, AB, T3M2M2"
282921,4,1840.0,11,3,1,920.0,919.0,,2014,690900.0,50.9032,-113.922,,460,Marquis Heights Se,Calgary,AB,T3M2A8,"460 Marquis Heights Se, Calgary, AB, T3M2A8","119 110 Auburn Meadows View Se, Calgary,, AB, T3M2M2"
282928,2,1257.0,6,2,1,554.0,569.0,,2013,402000.0,50.8855,-113.951,,77,Auburn Bay Street Se,Calgary,AB,T3M2A9,"77 Auburn Bay Street Se, Calgary, AB, T3M2A9","119 110 Auburn Meadows View Se, Calgary,, AB, T3M2M2"
284333,3,1376.0,5,2,1,622.0,753.0,,2021,462500.0,50.877,-113.946,,4375,Seton Drive Se,Calgary,AB,T3M0M2,"4375 Seton Drive Se, Calgary, AB, T3M0M2","119 110 Auburn Meadows View Se, Calgary,, AB, T3M2M2"
276548,3,2014.0,13,2,2,1085.0,929.0,,1996,630000.0,50.9374,-113.98,,37,Douglas Ridge Green Se,Calgary,AB,T2Z2T2,"37 Douglas Ridge Green Se, Calgary, AB, T2Z2T2","3666 Douglas Woods Hts Se, Calgary, AB, T2Z2G4"
279326,6,2447.0,15,3,1,1289.0,1158.0,,1992,1045000.0,50.9429,-114.009,,2207,Douglasbank Crescent Se,Calgary,AB,T2Z2J4,"2207 Douglasbank Crescent Se, Calgary, AB, T2Z2J4","3666 Douglas Woods Hts Se, Calgary, AB, T2Z2G4"
278903,5,2160.0,14,3,1,1146.0,1014.0,,1996,770000.0,50.9384,-113.994,,27,Douglas Park Place Se,Calgary,AB,T2Z2M5,"27 Douglas Park Place Se, Calgary, AB, T2Z2M5","3666 Douglas Woods Hts Se, Calgary, AB, T2Z2G4"
284345,3,1221.0,6,2,1,561.0,659.0,,2023,438000.0,50.8773,-113.944,,4661,Seton Drive Se,Calgary,AB,T3M0M2,"4661 Seton Drive Se, Calgary, AB, T3M0M2","119 110 Auburn Meadows View Se, Calgary,, AB, T3M2M2"
285003,5,2573.0,20,3,1,1182.0,1390.0,,2014,1155000.0,50.8925,-113.95,,285,Auburn Bay Avenue Se,Calgary,AB,T3M2C2,"285 Auburn Bay Avenue Se, Calgary, AB, T3M2C2","119 110 Auburn Meadows View Se, Calgary,, AB, T3M2M2"
282796,3,2018.0,10,2,1,963.0,1054.0,,1997,640000.0,50.9362,-113.977,,252,Douglas Ridge Green Se,Calgary,AB,T2Z3A7,"252 Douglas Ridge Green Se, Calgary, AB, T2Z3A7","3666 Douglas Woods Hts Se, Calgary, AB, T2Z2G4"
283620,4,2026.0,16,2,1,1167.0,859.0,,1994,710000.0,50.939,-113.99,,33,Douglasview Circle Se,Calgary,AB,T2Z2P4,"33 Douglasview Circle Se, Calgary, AB, T2Z2P4","3666 Douglas Woods Hts Se, Calgary, AB, T2Z2G4"
290068,3,1288.0,9,3,1,631.0,656.0,,2016,610000.0,50.896,-113.948,,192,Auburn Meadows Boulevard Se,Calgary,AB,T3M0T5,"192 Auburn Meadows Boulevard Se, Calgary, AB, T3M0T5","119 110 Auburn Meadows View Se, Calgary,, AB, T3M2M2"
300277,2,1482.0,6,2,1,581.0,599.0,,2021,545000.0,50.9568,-114.003,,57,Les Jardins Park Se,Calgary,AB,T2C0Z5,"57 Les Jardins Park Se, Calgary, AB, T2C0Z5","3666 Douglas Woods Hts Se, Calgary, AB, T2Z2G4"
284958,4,1431.0,10,3,1,689.0,741.0,,2017,642000.0,50.8997,-113.948,,215,Auburn Meadows Place Se,Calgary,AB,T3M2H6,"215 Auburn Meadows Place Se, Calgary, AB, T3M2H6","119 110 Auburn Meadows View Se, Calgary,, AB, T3M2M2"
286724,3,1383.0,11,3,1,710.0,672.0,,2012,612500.0,50.8972,-113.97,,106,Autumn Crescent Se,Calgary,AB,T3M0P5,"106 Autumn Crescent Se, Calgary, AB, T3M0P5","119 110 Auburn Meadows View Se, Calgary,, AB, T3M2M2"
287544,4,1406.0,11,2,1,691.0,714.0,,2011,581000.0,50.9098,-113.95,,245,Elgin Meadows Park Se,Calgary,AB,T2Z0M1,"245 Elgin Meadows Park Se, Calgary, AB, T2Z0M1","119 110 Auburn Meadows View Se, Calgary,, AB, T3M2M2"
287651,5,2806.0,16,3,1,1155.0,1650.0,,2011,1060000.0,50.9016,-113.935,,244,Mahogany Bay Se,Calgary,AB,T3M0Y1,"244 Mahogany Bay Se, Calgary, AB, T3M0Y1","119 110 Auburn Meadows View Se, Calgary,, AB, T3M2M2"
287678,5,2586.0,16,3,1,1181.0,1404.0,,2006,1230000.0,50.8875,-113.963,,90,Auburn Sound View Se,Calgary,AB,T3M0C9,"90 Auburn Sound View Se, Calgary, AB, T3M0C9","119 110 Auburn Meadows View Se, Calgary,, AB, T3M2M2"
287928,3,1188.0,9,3,1,583.0,604.0,,2016,587500.0,50.8949,-113.918,,236,Masters Avenue Se,Calgary,AB,T3M2B7,"236 Masters Avenue Se, Calgary, AB, T3M2B7","119 110 Auburn Meadows View Se, Calgary,, AB, T3M2M2"
288909,3,1881.0,10,2,1,817.0,1064.0,,2025,665000.0,50.8823,-113.927,,37,Bartlett Way Se,Calgary,AB,T3M2N8,"37 Bartlett Way Se, Calgary, AB, T3M2N8","119 110 Auburn Meadows View Se, Calgary,, AB, T3M2M2"
289545,4,2897.0,11,3,1,1391.0,1504.0,,2014,1055000.0,50.8973,-113.923,,38,Masters Point Se,Calgary,AB,T3M0Y3,"38 Masters Point Se, Calgary, AB, T3M0Y3","119 110 Auburn Meadows View Se, Calgary,, AB, T3M2M2"
289712,4,1265.0,8,3,1,632.0,632.0,,2006,570000.0,50.9088,-113.93,,372,Copperstone Grove Se,Calgary,AB,T2Z0R6,"372 Copperstone Grove Se, Calgary, AB, T2Z0R6","119 110 Auburn Meadows View Se, Calgary,, AB, T3M2M2"
93810,4,1315.0,8,2,1,680.0,635.0,,1995,605000.0,50.9523,-114.005,,283,Douglas Glen Boulevard Se,Calgary,AB,T2Z2M8,"283 Douglas Glen Boulevard Se, Calgary, AB, T2Z2M8","3666 Douglas Woods Hts Se, Calgary, AB, T2Z2G4"
91648,4,2296.0,11,3,1,1184.0,1111.0,,1999,889000.0,50.9294,-113.985,,135,Mt Douglas Point Se,Calgary,AB,T2Z3J8,"135 Mt Douglas Point Se, Calgary, AB, T2Z3J8","3666 Douglas Woods Hts Se, Calgary, AB, T2Z2G4"
279189,4,2030.0,15,2,1,1272.0,756.0,,1925,1800000.0,51.0339,-114.077,,2118,Hope Street Sw,Calgary,AB,T2S2H1,"2118 Hope Street Sw, Calgary, AB, T2S2H1","1633 27 Ave Sw, Calgary, AB, T2T1G7"
29611,4,1257.0,9,2,1,651.0,605.0,,2004,550000.0,50.9119,-113.949,,72,Copperfield Heights Se,Calgary,AB,T2Z4R5,"72 Copperfield Heights Se, Calgary, AB, T2Z4R5","119 110 Auburn Meadows View Se, Calgary,, AB, T3M2M2"
10352,4,2291.0,14,3,1,965.0,1326.0,,2010,808500.0,50.8994,-113.965,,110,Autumn Circle Se,Calgary,AB,T3M0J7,"110 Autumn Circle Se, Calgary, AB, T3M0J7","119 110 Auburn Meadows View Se, Calgary,, AB, T3M2M2"
9551,3,1875.0,9,2,1,703.0,756.0,,2015,555000.0,50.9025,-113.923,,299,Mahogany Boulevard Se,Calgary,AB,T3M1N8,"299 Mahogany Boulevard Se, Calgary, AB, T3M1N8","119 110 Auburn Meadows View Se, Calgary,, AB, T3M2M2"
9609,3,1508.0,12,3,1,789.0,718.0,,2010,630000.0,50.8889,-113.969,,75,Auburn Bay Crescent Se,Calgary,AB,T3M0E3,"75 Auburn Bay Crescent Se, Calgary, AB, T3M0E3","119 110 Auburn Meadows View Se, Calgary,, AB, T3M2M2"
12544,3,1463.0,8,2,1,741.0,721.0,,2010,565000.0,50.8954,-113.971,,18,Autumn Green Se,Calgary,AB,T3M0H5,"18 Autumn Green Se, Calgary, AB, T3M0H5","119 110 Auburn Meadows View Se, Calgary,, AB, T3M2M2"
95683,4,1482.0,8,3,1,715.0,766.0,,2008,428000.0,50.9783,-113.681,,56,Arbours Circle Nw,Langdon,AB,T0J1X2,"56 Arbours Circle Nw, Langdon, AB, T0J1X2","12 Mcdougall St Nw, Langdon, AB, T0J1X2"
12104,3,1125.0,7,2,1,544.0,580.0,,2011,527500.0,50.9096,-113.95,,233,Elgin Meadows Park Se,Calgary,AB,T2Z0M1,"233 Elgin Meadows Park Se, Calgary, AB, T2Z0M1","119 110 Auburn Meadows View Se, Calgary,, AB, T3M2M2"
92496,3,1194.0,6,2,1,584.0,609.0,,2016,538000.0,50.892,-113.946,,51,Auburn Meadows Heath Se,Calgary,AB,T3M,"51 Auburn Meadows Heath Se, Calgary, AB, T3M","119 110 Auburn Meadows View Se, Calgary,, AB, T3M2M2"
29668,4,2108.0,11,3,1,932.0,1175.0,,2013,830000.0,50.8999,-113.956,,140,Auburn Glen Drive Se,Calgary,AB,T3M0R3,"140 Auburn Glen Drive Se, Calgary, AB, T3M0R3","119 110 Auburn Meadows View Se, Calgary,, AB, T3M2M2"
29624,4,2171.0,10,3,1,917.0,1254.0,,2013,872500.0,50.8892,-113.952,,65,Auburn Springs Place Se,Calgary,AB,T3M1Y2,"65 Auburn Springs Place Se, Calgary, AB, T3M1Y2","119 110 Auburn Meadows View Se, Calgary,, AB, T3M2M2"
98477,4,1793.0,15,3,1,905.0,888.0,,2024,800000.0,50.9767,-113.699,,264,Northern Lights Cres,Langdon,AB,T0J1X2,"264 Northern Lights Cres, Langdon, AB, T0J1X2","12 Mcdougall St Nw, Langdon, AB, T0J1X2"
31054,2,1121.0,5,2,1,542.0,578.0,,2005,518500.0,50.9031,-113.968,,129,Elgin Place Se,Calgary,AB,T2Z4V9,"129 Elgin Place Se, Calgary, AB, T2Z4V9","119 110 Auburn Meadows View Se, Calgary,, AB, T3M2M2"
12596,3,1348.0,15,2,1,702.0,645.0,,2020,475000.0,50.8771,-113.946,,4377,Seton Drive Se,Calgary,AB,T3M0M2,"4377 Seton Drive Se, Calgary, AB, T3M0M2","119 110 Auburn Meadows View Se, Calgary,, AB, T3M2M2"
96954,5,2671.0,14,3,1,1231.0,1439.0,,2013,1047500.0,50.8944,-113.965,,151,Auburn Sound Circle Se,Calgary,AB,T3M0R8,"151 Auburn Sound Circle Se, Calgary, AB, T3M0R8","119 110 Auburn Meadows View Se, Calgary,, AB, T3M2M2"
91477,3,2325.0,11,2,1,964.0,1360.0,,2014,865000.0,50.895,-113.922,,41,Masters Park Se,Calgary,AB,T3M,"41 Masters Park Se, Calgary, AB, T3M","119 110 Auburn Meadows View Se, Calgary,, AB, T3M2M2"
93152,3,1434.0,11,2,1,690.0,548.0,,2013,565000.0,50.8908,-113.945,,539,Auburn Bay Avenue Se,Calgary,AB,T3M1T1,"539 Auburn Bay Avenue Se, Calgary, AB, T3M1T1","119 110 Auburn Meadows View Se, Calgary,, AB, T3M2M2"
96816,4,2807.0,13,2,1,1254.0,1552.0,,2023,1220000.0,50.8891,-113.927,,259,Marina Grove Se,Calgary,AB,T3M3J4,"259 Marina Grove Se, Calgary, AB, T3M3J4","119 110 Auburn Meadows View Se, Calgary,, AB, T3M2M2"
92441,2,1408.0,10,2,1,688.0,719.0,,2012,535000.0,50.9089,-113.95,,181,Elgin Meadows Park Se,Calgary,AB,T2Z1B5,"181 Elgin Meadows Park Se, Calgary, AB, T2Z1B5","119 110 Auburn Meadows View Se, Calgary,, AB, T3M2M2"
97997,4,1607.0,12,3,1,706.0,900.0,,2010,700000.0,50.8966,-113.96,,146,Auburn Glen Circle Se,Calgary,AB,T3M0K9,"146 Auburn Glen Circle Se, Calgary, AB, T3M0K9","119 110 Auburn Meadows View Se, Calgary,, AB, T3M2M2"
96298,3,1534.0,7,2,1,792.0,696.0,,2020,480000.0,50.877,-113.947,,4337,Seton Drive Se,Calgary,AB,T3M0M2,"4337 Seton Drive Se, Calgary, AB, T3M0M2","119 110 Auburn Meadows View Se, Calgary,, AB, T3M2M2"
91525,4,2375.0,13,3,1,1050.0,1324.0,,2007,890000.0,50.9082,-113.962,,128,Elgin Estates Park Se,Calgary,AB,T2Z0B8,"128 Elgin Estates Park Se, Calgary, AB, T2Z0B8","119 110 Auburn Meadows View Se, Calgary,, AB, T3M2M2"
97947,3,1544.0,6,2,1,783.0,760.0,,2014,659900.0,50.8862,-113.944,,489,Auburn Crest Way Se,Calgary,AB,T3M1P9,"489 Auburn Crest Way Se, Calgary, AB, T3M1P9","119 110 Auburn Meadows View Se, Calgary,, AB, T3M2M2"
29644,2,1885.0,6,2,1,1884.0,,,2023,1889900.0,50.893,-113.936,201,180,Marina Cove Se,Calgary,AB,T3M2K6,"180 Marina Cove Se, Unit 201, Calgary, AB, T3M2K6","119 110 Auburn Meadows View Se, Calgary,, AB, T3M2M2"
284907,4,1974.0,13,3,1,964.0,1009.0,,2009,1005000.0,51.032,-114.111,,2599,21 Street Sw,Calgary,AB,T2T5A9,"2599 21 Street Sw, Calgary, AB, T2T5A9","1633 27 Ave Sw, Calgary, AB, T2T1G7"
78765,3,1236.0,11,3,1,600.0,636.0,,2016,579000.0,50.8908,-113.942,,23,Mahogany Drive Se,Calgary,AB,T3M2K3,"23 Mahogany Drive Se, Calgary, AB, T3M2K3","119 110 Auburn Meadows View Se, Calgary,, AB, T3M2M2"
282208,4,2086.0,11,3,1,979.0,1107.0,,2021,1280000.0,51.0144,-114.108,,2038,44 Avenue Sw,Calgary,AB,T2T2N8,"2038 44 Avenue Sw, Calgary, AB, T2T2N8","1633 27 Ave Sw, Calgary, AB, T2T1G7"
282799,4,2157.0,15,3,1,1035.0,1122.0,,2004,888000.0,51.1386,-114.248,,138,Tusslewood Terrace Nw,Calgary,AB,T3L2W4,"138 Tusslewood Terrace Nw, Calgary, AB, T3L2W4","2 Rockcliff Hts Nw, Calgary, AB, T3G0C7"
279194,4,2384.0,15,3,1,1171.0,1212.0,,2012,1706500.0,51.0164,-114.105,,4224,18 Street Sw,Calgary,AB,T2T4V7,"4224 18 Street Sw, Calgary, AB, T2T4V7","1633 27 Ave Sw, Calgary, AB, T2T1G7"
284663,7,5789.0,26,4,2,990.0,4798.0,,1985,1999900.0,51.1583,-114.254,,35,Bearspaw Ridge Cres,Rural Rocky View County,AB,T3R1A3,"35 Bearspaw Ridge Cres, Rural Rocky View County, AB, T3R1A3","2 Rockcliff Hts Nw, Calgary, AB, T3G0C7"
280628,2,1721.0,11,3,1,978.0,743.0,,2005,825000.0,51.0168,-114.114,,5012,Patricia Landing Sw,Calgary,AB,T2T6P4,"5012 Patricia Landing Sw, Calgary, AB, T2T6P4","1633 27 Ave Sw, Calgary, AB, T2T1G7"
289532,4,2134.0,12,3,1,1122.0,1011.0,,2004,886000.0,51.153,-114.247,,122,Rockywood Circle Nw,Calgary,AB,T3G5W1,"122 Rockywood Circle Nw, Calgary, AB, T3G5W1","2 Rockcliff Hts Nw, Calgary, AB, T3G0C7"
289533,4,2586.0,11,3,1,1192.0,1393.0,,2012,960000.0,51.1514,-114.238,,41,Rockford Terrace Nw,Calgary,AB,T3G5H3,"41 Rockford Terrace Nw, Calgary, AB, T3G5H3","2 Rockcliff Hts Nw, Calgary, AB, T3G0C7"
289634,4,2233.0,16,3,1,1146.0,1086.0,,2005,771200.0,51.1534,-114.231,,223,Royal Oak Heights Nw,Calgary,AB,T3G5V4,"223 Royal Oak Heights Nw, Calgary, AB, T3G5V4","2 Rockcliff Hts Nw, Calgary, AB, T3G0C7"
206533,3,1710.0,11,2,1,657.0,1052.0,,2006,709900.0,50.9764,-113.689,,32,Mckinnon Street Nw,Langdon,AB,T0J1X2,"32 Mckinnon Street Nw, Langdon, AB, T0J1X2","12 Mcdougall St Nw, Langdon, AB, T0J1X2"
10089,3,1585.0,10,3,1,711.0,874.0,,2013,618100.0,50.898,-113.937,,2260,Mahogany Boulevard Se,Calgary,AB,T3M0T2,"2260 Mahogany Boulevard Se, Calgary, AB, T3M0T2","119 110 Auburn Meadows View Se, Calgary,, AB, T3M2M2"
206136,3,1494.0,8,2,1,722.0,772.0,,2008,420000.0,50.9791,-113.681,,21,Arbours Circle Nw,Langdon,AB,T0J1X2,"21 Arbours Circle Nw, Langdon, AB, T0J1X2","12 Mcdougall St Nw, Langdon, AB, T0J1X2"
93277,4,1409.0,10,3,1,685.0,723.0,,2016,565000.0,50.8923,-113.947,,39,Auburn Meadows Heath Se,Calgary,AB,T3M2E3,"39 Auburn Meadows Heath Se, Calgary, AB, T3M2E3","119 110 Auburn Meadows View Se, Calgary,, AB, T3M2M2"
206125,3,2296.0,9,2,1,1040.0,1255.0,,2024,751175.0,50.9763,-113.693,,119,Brander Ave,Langdon,AB,T0J1X2,"119 Brander Ave, Langdon, AB, T0J1X2","12 Mcdougall St Nw, Langdon, AB, T0J1X2"
12947,2,1131.0,7,2,1,546.0,584.0,,2012,537500.0,50.9093,-113.95,,209,Elgin Meadows Park Se,Calgary,AB,T2Z1B5,"209 Elgin Meadows Park Se, Calgary, AB, T2Z1B5","119 110 Auburn Meadows View Se, Calgary,, AB, T3M2M2"
282876,4,2271.0,13,2,2,865.0,1405.0,,2018,1200000.0,51.0297,-114.107,,2008,27 Avenue Sw,Calgary,AB,T2T1H5,"2008 27 Avenue Sw, Calgary, AB, T2T1H5","1633 27 Ave Sw, Calgary, AB, T2T1G7"
282926,4,1673.0,12,3,1,995.0,678.0,,1953,1040000.0,51.0247,-114.106,,1933,32 Avenue Sw,Calgary,AB,T2T1W5,"1933 32 Avenue Sw, Calgary, AB, T2T1W5","1633 27 Ave Sw, Calgary, AB, T2T1G7"
12968,3,1121.0,6,1,1,560.0,560.0,,2006,510000.0,50.8869,-113.972,,62,Cranberry Close Se,Calgary,AB,T3M0B4,"62 Cranberry Close Se, Calgary, AB, T3M0B4","119 110 Auburn Meadows View Se, Calgary,, AB, T3M2M2"
29768,3,1619.0,13,2,2,699.0,920.0,,2016,659500.0,50.8972,-113.949,,164,Auburn Glen Close Se,Calgary,AB,T3M0T5,"164 Auburn Glen Close Se, Calgary, AB, T3M0T5","119 110 Auburn Meadows View Se, Calgary,, AB, T3M2M2"
29748,3,1033.0,6,3,1,499.0,534.0,,2014,557000.0,50.8966,-113.944,,32,Auburn Meadows Avenue Se,Calgary,AB,T3M2H9,"32 Auburn Meadows Avenue Se, Calgary, AB, T3M2H9","119 110 Auburn Meadows View Se, Calgary,, AB, T3M2M2"
12871,3,1280.0,8,3,1,627.0,652.0,,2014,542000.0,50.8933,-113.948,,48,Auburn Meadows Boulevard Se,Calgary,AB,T3M2C9,"48 Auburn Meadows Boulevard Se, Calgary, AB, T3M2C9","119 110 Auburn Meadows View Se, Calgary,, AB, T3M2M2"
97957,3,1985.0,10,2,1,884.0,1105.0,,2025,687024.0,50.9783,-113.699,,388,Northern Lights Green,Langdon,AB,T0J1X2,"388 Northern Lights Green, Langdon, AB, T0J1X2","12 Mcdougall St Nw, Langdon, AB, T0J1X2"
284685,4,1869.0,14,3,1,898.0,970.0,,2002,1018750.0,51.0171,-114.106,,4130,19 Street Sw,Calgary,AB,T2T4Y3,"4130 19 Street Sw, Calgary, AB, T2T4Y3","1633 27 Ave Sw, Calgary, AB, T2T1G7"
78577,3,1340.0,7,2,1,645.0,694.0,,2015,565000.0,50.8908,-113.942,,31,Mahogany Drive Se,Calgary,AB,T3M2K3,"31 Mahogany Drive Se, Calgary, AB, T3M2K3","119 110 Auburn Meadows View Se, Calgary,, AB, T3M2M2"
93318,4,1298.0,9,2,1,632.0,665.0,,2013,597000.0,50.9018,-113.926,,174,Mahogany Boulevard Se,Calgary,AB,T3M0X6,"174 Mahogany Boulevard Se, Calgary, AB, T3M0X6","119 110 Auburn Meadows View Se, Calgary,, AB, T3M2M2"
97910,4,2208.0,10,2,1,1379.0,829.0,,1986,693500.0,50.9432,-113.998,,212,Douglas Woods Court Se,Calgary,AB,T2Z1Z2,"212 Douglas Woods Court Se, Calgary, AB, T2Z1Z2","3666 Douglas Woods Hts Se, Calgary, AB, T2Z2G4"
300285,2,1055.0,8,1,1,1055.0,,,1981,225000.0,51.0396,-114.092,1010,1304,15 Avenue Sw,Calgary,AB,T3C0X7,"1304 15 Avenue Sw, Unit 1010, Calgary, AB, T3C0X7","1633 27 Ave Sw, Calgary, AB, T2T1G7"
215524,4,1342.0,11,2,1,711.0,631.0,,2002,580000.0,50.9097,-113.948,,190,Copperfield Gardens Se,Calgary,AB,T2Z4C2,"190 Copperfield Gardens Se, Calgary, AB, T2Z4C2","119 110 Auburn Meadows View Se, Calgary,, AB, T3M2M2"
232558,4,1340.0,10,3,1,641.0,699.0,,2016,609000.0,50.8987,-113.946,,40,Auburn Meadows Gardens Se,Calgary,AB,T3M0T5,"40 Auburn Meadows Gardens Se, Calgary, AB, T3M0T5","119 110 Auburn Meadows View Se, Calgary,, AB, T3M2M2"
257226,3,2474.0,10,3,1,1037.0,1437.0,,2015,1123000.0,50.901,-113.921,,83,Marquis Grove Se,Calgary,AB,T3M1M6,"83 Marquis Grove Se, Calgary, AB, T3M1M6","119 110 Auburn Meadows View Se, Calgary,, AB, T3M2M2"
290431,3,1854.0,9,2,1,302.0,1551.0,,2021,942500.0,51.0328,-114.074,,2220,5 Street Sw,Calgary,AB,T2S,"2220 5 Street Sw, Calgary, AB, T2S","1633 27 Ave Sw, Calgary, AB, T2T1G7"
290443,3,1657.0,8,3,,1071.0,567.0,,2020,735000.0,51.0225,-114.101,202,1709,35 Avenue Sw,Calgary,AB,T2T6X9,"1709 35 Avenue Sw, Unit 202, Calgary, AB, T2T6X9","1633 27 Ave Sw, Calgary, AB, T2T1G7"
259424,5,2017.0,16,3,1,927.0,1090.0,,2010,830000.0,50.8952,-113.958,,50,Auburn Glen Circle Se,Calgary,AB,T3M0K9,"50 Auburn Glen Circle Se, Calgary, AB, T3M0K9","119 110 Auburn Meadows View Se, Calgary,, AB, T3M2M2"
259342,3,1718.0,8,2,1,868.0,849.0,,2013,664000.0,50.9044,-113.923,,98,Marquis Common Se,Calgary,AB,T3S,"98 Marquis Common Se, Calgary, AB, T3S","119 110 Auburn Meadows View Se, Calgary,, AB, T3M2M2"
297824,3,1685.0,6,1,1,932.0,753.0,,2004,580000.0,51.0217,-114.104,,1839,36 Avenue Sw,Calgary,AB,T2T2G6,"1839 36 Avenue Sw, Calgary, AB, T2T2G6","1633 27 Ave Sw, Calgary, AB, T2T1G7"
259382,4,1383.0,9,3,1,669.0,714.0,,2016,586000.0,50.8908,-113.938,,181,Mahogany Drive Se,Calgary,AB,T3M2K6,"181 Mahogany Drive Se, Calgary, AB, T3M2K6","119 110 Auburn Meadows View Se, Calgary,, AB, T3M2M2"
259774,3,3288.0,16,3,1,1668.0,1619.0,,2013,2150000.0,50.9004,-113.933,,111,Mahogany Bay Se,Calgary,AB,T3M0T2,"111 Mahogany Bay Se, Calgary, AB, T3M0T2","119 110 Auburn Meadows View Se, Calgary,, AB, T3M2M2"
261010,3,1673.0,10,2,1,698.0,740.0,,2023,643900.0,50.8946,-113.933,,585,Mahogany Road Se,Calgary,AB,T3M3Y3,"585 Mahogany Road Se, Calgary, AB, T3M3Y3","119 110 Auburn Meadows View Se, Calgary,, AB, T3M2M2"
215486,2,1411.0,7,2,1,690.0,721.0,,2012,550000.0,50.887,-113.948,,42,Auburn Crest Place Se,Calgary,AB,T3M0Z4,"42 Auburn Crest Place Se, Calgary, AB, T3M0Z4","119 110 Auburn Meadows View Se, Calgary,, AB, T3M2M2"
261018,3,2047.0,14,3,1,1047.0,1000.0,,2007,757000.0,50.895,-113.965,,102,Autumn Gardens Se,Calgary,AB,T3M0H8,"102 Autumn Gardens Se, Calgary, AB, T3M0H8","119 110 Auburn Meadows View Se, Calgary,, AB, T3M2M2"
300368,4,2047.0,11,3,1,955.0,1092.0,,2012,950000.0,51.0238,-114.102,,1735,33 Avenue Sw,Calgary,AB,T2T1Y8,"1735 33 Avenue Sw, Calgary, AB, T2T1Y8","1633 27 Ave Sw, Calgary, AB, T2T1G7"
9159,3,1626.0,8,2,2,213.0,1413.0,,2020,629000.0,50.9568,-114.003,,111,Les Jardins Park Se,Calgary,AB,T2C0Z5,"111 Les Jardins Park Se, Calgary, AB, T2C0Z5","3666 Douglas Woods Hts Se, Calgary, AB, T2Z2G4"
49043,3,1958.0,10,2,1,843.0,1115.0,,1995,690000.0,50.9409,-113.988,,3011,Douglasdale Boulevard Se,Calgary,AB,T2Z2H8,"3011 Douglasdale Boulevard Se, Calgary, AB, T2Z2H8","3666 Douglas Woods Hts Se, Calgary, AB, T2Z2G4"
262049,3,1479.0,11,2,1,621.0,598.0,,2022,523000.0,50.8937,-113.944,,83,Auburn Meadows S Street Se,Calgary,AB,T3M,"83 Auburn Meadows S Street Se, Calgary, AB, T3M","119 110 Auburn Meadows View Se, Calgary,, AB, T3M2M2"
42216,3,1253.0,9,2,1,644.0,608.0,,1997,615000.0,50.9275,-113.981,,14520,Mt Mckenzie Drive Se,Calgary,AB,T2Z3G9,"14520 Mt Mckenzie Drive Se, Calgary, AB, T2Z3G9","3666 Douglas Woods Hts Se, Calgary, AB, T2Z2G4"
262135,4,2294.0,15,3,1,956.0,1337.0,,2010,860000.0,50.9012,-113.938,,52,Mahogany Heath Se,Calgary,AB,T3M0T1,"52 Mahogany Heath Se, Calgary, AB, T3M0T1","119 110 Auburn Meadows View Se, Calgary,, AB, T3M2M2"
262774,3,2187.0,11,2,1,816.0,1062.0,,2025,729900.0,50.883,-113.929,,58,Bartlett Row Se,Calgary,AB,T3M2N8,"58 Bartlett Row Se, Calgary, AB, T3M2N8","119 110 Auburn Meadows View Se, Calgary,, AB, T3M2M2"
93209,4,1702.0,11,3,1,744.0,957.0,,1998,595000.0,50.9349,-113.977,,270,Douglas Ridge Circle Se,Calgary,AB,T2Z3H5,"270 Douglas Ridge Circle Se, Calgary, AB, T2Z3H5","3666 Douglas Woods Hts Se, Calgary, AB, T2Z2G4"
262819,3,1232.0,10,2,1,633.0,599.0,,2016,470000.0,50.896,-113.947,,224,Auburn Meadows Walk Se,Calgary,AB,T3M0T5,"224 Auburn Meadows Walk Se, Calgary, AB, T3M0T5","119 110 Auburn Meadows View Se, Calgary,, AB, T3M2M2"
215500,2,1019.0,6,2,1,511.0,507.0,,2008,411750.0,50.8909,-113.97,,108,Auburn Bay Common Se,Calgary,AB,T3M,"108 Auburn Bay Common Se, Calgary, AB, T3M","119 110 Auburn Meadows View Se, Calgary,, AB, T3M2M2"
289628,4,3517.0,16,4,1,1795.0,1721.0,,2024,4800000.0,51.0198,-114.094,,3907,Crestview Road Sw,Calgary,AB,T2T2L5,"3907 Crestview Road Sw, Calgary, AB, T2T2L5","1633 27 Ave Sw, Calgary, AB, T2T1G7"
285797,3,1148.0,7,2,1,599.0,548.0,,1978,725000.0,51.0336,-114.125,,2230,26A Street Sw,Calgary,AB,T3E2C3,"2230 26A Street Sw, Calgary, AB, T3E2C3","1633 27 Ave Sw, Calgary, AB, T2T1G7"
206696,3,2323.0,14,2,1,1000.0,1323.0,,2012,868000.0,50.8886,-113.952,,204,Auburn Springs Close Se,Calgary,AB,T3M0Z8,"204 Auburn Springs Close Se, Calgary, AB, T3M0Z8","119 110 Auburn Meadows View Se, Calgary,, AB, T3M2M2"
205958,5,2538.0,9,3,1,1096.0,1441.0,,2015,960000.0,50.8963,-113.951,,81,Auburn Meadows Crescent Se,Calgary,AB,T3M2E3,"81 Auburn Meadows Crescent Se, Calgary, AB, T3M2E3","119 110 Auburn Meadows View Se, Calgary,, AB, T3M2M2"
206115,5,3096.0,12,4,1,1285.0,1811.0,,2021,1459900.0,50.8898,-113.928,,224,Marina Landing Se,Calgary,AB,T3M3J6,"224 Marina Landing Se, Calgary, AB, T3M3J6","119 110 Auburn Meadows View Se, Calgary,, AB, T3M2M2"
206150,4,2924.0,17,3,1,1158.0,1766.0,,2012,975000.0,50.9024,-113.93,,534,Mahogany Manor Se,Calgary,AB,T3M0Y3,"534 Mahogany Manor Se, Calgary, AB, T3M0Y3","119 110 Auburn Meadows View Se, Calgary,, AB, T3M2M2"
206237,2,1414.0,9,2,1,298.0,1115.0,,2013,455000.0,50.9036,-113.924,,224,Marquis Lane Se,Calgary,AB,T3S,"224 Marquis Lane Se, Calgary, AB, T3S","119 110 Auburn Meadows View Se, Calgary,, AB, T3M2M2"
206277,5,2002.0,10,2,1,1042.0,959.0,,2007,695000.0,50.9063,-113.962,,43,Elgin Terrace Se,Calgary,AB,T2Z0B7,"43 Elgin Terrace Se, Calgary, AB, T2Z0B7","119 110 Auburn Meadows View Se, Calgary,, AB, T3M2M2"
285839,3,2012.0,7,3,1,780.0,786.0,,2020,785000.0,51.0363,-114.103,,2110,17A Street Sw,Calgary,AB,T2T4R8,"2110 17A Street Sw, Calgary, AB, T2T4R8","1633 27 Ave Sw, Calgary, AB, T2T1G7"
286001,4,1991.0,17,3,1,993.0,996.0,,2001,1178000.0,51.0187,-114.114,,4069,Garrison Boulevard Sw,Calgary,AB,T2T6J8,"4069 Garrison Boulevard Sw, Calgary, AB, T2T6J8","1633 27 Ave Sw, Calgary, AB, T2T1G7"
206343,4,2884.0,12,3,1,1345.0,1539.0,,2013,1370000.0,50.8889,-113.958,,153,Auburn Shores Landing Se,Calgary,AB,T3M0C9,"153 Auburn Shores Landing Se, Calgary, AB, T3M0C9","119 110 Auburn Meadows View Se, Calgary,, AB, T3M2M2"
206484,2,1211.0,7,2,1,628.0,583.0,,2012,417500.0,50.8851,-113.953,,219,Auburn Bay Circle Se,Calgary,AB,T3M1S6,"219 Auburn Bay Circle Se, Calgary, AB, T3M1S6","119 110 Auburn Meadows View Se, Calgary,, AB, T3M2M2"
206672,4,1554.0,10,3,1,796.0,757.0,,2003,624900.0,50.9081,-113.945,,121,Copperfield Mews Se,Calgary,AB,T2Z4C7,"121 Copperfield Mews Se, Calgary, AB, T2Z4C7","119 110 Auburn Meadows View Se, Calgary,, AB, T3M2M2"
286837,4,1910.0,11,3,1,933.0,976.0,,2007,998000.0,51.0172,-114.107,,2014,41 Avenue Sw,Calgary,AB,T2T2M1,"2014 41 Avenue Sw, Calgary, AB, T2T2M1","1633 27 Ave Sw, Calgary, AB, T2T1G7"
258879,4,2102.0,12,3,1,1063.0,1038.0,,2007,755000.0,50.9064,-113.962,,39,Elgin Terrace Se,Calgary,AB,T2Z,"39 Elgin Terrace Se, Calgary, AB, T2Z","119 110 Auburn Meadows View Se, Calgary,, AB, T3M2M2"
207258,3,1237.0,8,2,1,639.0,598.0,,2004,420000.0,50.9073,-113.941,,147,Copperfield Lane Se,Calgary,AB,T2Z4S9,"147 Copperfield Lane Se, Calgary, AB, T2Z4S9","119 110 Auburn Meadows View Se, Calgary,, AB, T3M2M2"
287990,3,1151.0,9,3,1,558.0,,,2011,550000.0,51.0322,-114.119,2,2426,24A Street Sw,Calgary,AB,T3E1V9,"2426 24A Street Sw, Unit 2, Calgary, AB, T3E1V9","1633 27 Ave Sw, Calgary, AB, T2T1G7"
288640,5,2951.0,20,3,2,1221.0,1731.0,,1980,1125000.0,51.0281,-114.078,,611,29 Avenue Sw,Calgary,AB,T2S0N8,"611 29 Avenue Sw, Calgary, AB, T2S0N8","1633 27 Ave Sw, Calgary, AB, T2T1G7"
207608,3,1998.0,10,2,1,856.0,1142.0,,2009,712000.0,50.895,-113.956,,539,Auburn Bay Drive Se,Calgary,AB,T3M,"539 Auburn Bay Drive Se, Calgary, AB, T3M","119 110 Auburn Meadows View Se, Calgary,, AB, T3M2M2"
288513,4,2769.0,19,3,1,1366.0,1403.0,,2014,1925000.0,51.0251,-114.101,,1728,32 Avenue Sw,Calgary,AB,T2T1V9,"1728 32 Avenue Sw, Calgary, AB, T2T1V9","1633 27 Ave Sw, Calgary, AB, T2T1G7"
207611,3,1129.0,7,1,1,553.0,575.0,,2013,538256.0,50.8909,-113.946,,499,Auburn Bay Avenue Se,Calgary,AB,T3M1T1,"499 Auburn Bay Avenue Se, Calgary, AB, T3M1T1","119 110 Auburn Meadows View Se, Calgary,, AB, T3M2M2"
288586,2,2176.0,13,2,1,853.0,870.0,,1989,1310000.0,51.0265,-114.105,,1913,30 Avenue Sw,Calgary,AB,T2T1R1,"1913 30 Avenue Sw, Calgary, AB, T2T1R1","1633 27 Ave Sw, Calgary, AB, T2T1G7"
259029,2,1403.0,7,2,2,692.0,710.0,,2013,568000.0,50.8918,-113.948,,424,Auburn Bay Avenue Se,Calgary,AB,T3M1Y5,"424 Auburn Bay Avenue Se, Calgary, AB, T3M1Y5","119 110 Auburn Meadows View Se, Calgary,, AB, T3M2M2"
289536,3,1268.0,9,3,1,633.0,633.0,,2003,690000.0,51.0199,-114.117,,30,Somme Way Sw,Calgary,AB,T2T6L7,"30 Somme Way Sw, Calgary, AB, T2T6L7","1633 27 Ave Sw, Calgary, AB, T2T1G7"
12833,3,1406.0,7,2,1,690.0,716.0,,2011,562000.0,50.9098,-113.95,,241,Elgin Meadows Park Se,Calgary,AB,T2Z1B4,"241 Elgin Meadows Park Se, Calgary, AB, T2Z1B4","119 110 Auburn Meadows View Se, Calgary,, AB, T3M2M2"
277433,3,1703.0,15,3,1,807.0,896.0,,2018,890000.0,51.0658,-114.05,,617,15 Avenue Ne,Calgary,AB,T2E1H9,"617 15 Avenue Ne, Calgary, AB, T2E1H9","824 9A St Ne, Calgary, AB, T2E4L6"
97913,2,1404.0,6,2,1,752.0,652.0,,1977,672500.0,51.0581,-114.142,,3816,Point Mckay Road Nw,Calgary,AB,T3B5B8,"3816 Point Mckay Road Nw, Calgary, AB, T3B5B8","504 37 St Nw,, Calgary,, AB, T2N3B8"
33784,3,1783.0,10,2,1,860.0,923.0,,1980,864880.0,51.0601,-114.147,,536,Point Mckay Grove Nw,Calgary,AB,T3B5C5,"536 Point Mckay Grove Nw, Calgary, AB, T3B5C5","504 37 St Nw,, Calgary,, AB, T2N3B8"
68360,4,1853.0,12,3,1,903.0,949.0,,2013,1065000.0,51.0624,-114.139,,728,36 Street Nw,Calgary,AB,T2N3A6,"728 36 Street Nw, Calgary, AB, T2N3A6","504 37 St Nw,, Calgary,, AB, T2N3B8"
206238,2,1600.0,6,2,1,1599.0,,,2009,1074000.0,51.0448,-114.064,1605,108,9 Avenue Sw,Calgary,AB,T2P0T1,"108 9 Avenue Sw, Unit 1605, Calgary, AB, T2P0T1","530 3 St Se, Unit 2306, Calgary, AB, T2G2L8"
33910,2,998.0,6,1,1,997.0,,,1981,441000.0,51.0626,-114.148,1801,80,Point Mckay Crescent Nw,Calgary,AB,T3B5C3,"80 Point Mckay Crescent Nw, Unit 1801, Calgary, AB, T3B5C3","504 37 St Nw,, Calgary,, AB, T2N3B8"
10127,5,3122.0,18,4,1,1533.0,1569.0,,2024,2370000.0,51.0556,-114.114,,2326,3 Avenue Nw,Calgary,AB,T2N0K8,"2326 3 Avenue Nw, Calgary, AB, T2N0K8","504 37 St Nw,, Calgary,, AB, T2N3B8"
258863,3,1808.0,10,2,2,712.0,1034.0,,2005,655000.0,50.918,-113.949,,148,Brightondale Parade Se,Calgary,AB,T2Z4K2,"148 Brightondale Parade Se, Calgary, AB, T2Z4K2","58 Copperleaf Terr Se, Calgary, AB, T2Z0H9"
206339,3,2183.0,11,3,1,1356.0,827.0,,1949,864000.0,51.0373,-114.063,,1770,Centre Street Se,Calgary,AB,T2S0A1,"1770 Centre Street Se, Calgary, AB, T2S0A1","530 3 St Se, Unit 2306, Calgary, AB, T2G2L8"
258903,3,2556.0,12,2,1,1105.0,1450.0,,2010,720000.0,50.9222,-113.942,,692,New Brighton Drive Se,Calgary,AB,T2Z0Y7,"692 New Brighton Drive Se, Calgary, AB, T2Z0Y7","58 Copperleaf Terr Se, Calgary, AB, T2Z0H9"
9570,4,1694.0,13,3,1,790.0,904.0,,2013,866500.0,51.0513,-114.14,,3712,2 Avenue Sw,Calgary,AB,T3C0A3,"3712 2 Avenue Sw, Calgary, AB, T3C0A3","504 37 St Nw,, Calgary,, AB, T2N3B8"
206565,4,2079.0,12,3,1,952.0,984.0,,1999,815000.0,51.0631,-114.051,,539,12 Avenue Ne,Calgary,AB,T2E1A9,"539 12 Avenue Ne, Calgary, AB, T2E1A9","530 3 St Se, Unit 2306, Calgary, AB, T2G2L8"
206611,2,1259.0,7,2,1,621.0,637.0,,2018,619000.0,51.0418,-114.068,,302,12 Avenue Sw,Calgary,AB,T2R0H2,"302 12 Avenue Sw, Calgary, AB, T2R0H2","530 3 St Se, Unit 2306, Calgary, AB, T2G2L8"
34004,4,2413.0,15,3,1,1226.0,1187.0,,2007,1650000.0,51.0585,-114.14,,140,35 Street Nw,Calgary,AB,T2N2Y9,"140 35 Street Nw, Calgary, AB, T2N2Y9","504 37 St Nw,, Calgary,, AB, T2N3B8"
9849,4,2056.0,22,4,1,999.0,1056.0,,2024,1076000.0,51.058,-114.117,,2431,6 Avenue Nw,Calgary,AB,T2N0X5,"2431 6 Avenue Nw, Calgary, AB, T2N0X5","504 37 St Nw,, Calgary,, AB, T2N3B8"
34008,5,2873.0,17,5,1,1436.0,1436.0,,2025,2190000.0,51.0567,-114.123,,2705,5 Avenue Nw,Calgary,AB,T2N0T9,"2705 5 Avenue Nw, Calgary, AB, T2N0T9","504 37 St Nw,, Calgary,, AB, T2N3B8"
10014,4,2008.0,11,3,1,997.0,1010.0,,1995,925000.0,51.059,-114.124,,2726,7 Avenue Nw,Calgary,AB,T2N1A7,"2726 7 Avenue Nw, Calgary, AB, T2N1A7","504 37 St Nw,, Calgary,, AB, T2N3B8"
34030,3,2258.0,16,3,1,1191.0,1067.0,,1954,985000.0,51.0594,-114.129,,3616,8 Avenue Nw,Calgary,AB,T2N1C8,"3616 8 Avenue Nw, Calgary, AB, T2N1C8","504 37 St Nw,, Calgary,, AB, T2N3B8"
34028,3,2993.0,24,3,1,1590.0,1402.0,,2003,1180000.0,51.0594,-114.129,,3524,8 Avenue Nw,Calgary,AB,T2N1C8,"3524 8 Avenue Nw, Calgary, AB, T2N1C8","504 37 St Nw,, Calgary,, AB, T2N3B8"
8174,4,1706.0,13,3,1,804.0,901.0,,2024,1049900.0,51.0562,-114.119,,2528,4 Avenue Nw,Calgary,AB,T2N0P4,"2528 4 Avenue Nw, Calgary, AB, T2N0P4","504 37 St Nw,, Calgary,, AB, T2N3B8"
10591,4,2692.0,17,5,2,2138.0,554.0,,2024,2250000.0,51.0621,-114.139,,727,35A Street Nw,Calgary,AB,T2N3A3,"727 35A Street Nw, Calgary, AB, T2N3A3","504 37 St Nw,, Calgary,, AB, T2N3B8"
33988,4,1925.0,13,3,1,924.0,1000.0,,2024,1310000.0,51.0607,-114.132,,922,33A Street Nw,Calgary,AB,T2N2X3,"922 33A Street Nw, Calgary, AB, T2N2X3","504 37 St Nw,, Calgary,, AB, T2N3B8"
206105,5,3054.0,22,3,1,1529.0,1525.0,,2023,2200000.0,51.0578,-114.04,,1007,Drury Avenue Ne,Calgary,AB,T2E0M3,"1007 Drury Avenue Ne, Calgary, AB, T2E0M3","530 3 St Se, Unit 2306, Calgary, AB, T2G2L8"
98438,3,1421.0,7,2,1,751.0,669.0,,1977,738000.0,51.0592,-114.143,,3920,Point Mckay Road Nw,Calgary,AB,T3B5B9,"3920 Point Mckay Road Nw, Calgary, AB, T3B5B9","504 37 St Nw,, Calgary,, AB, T2N3B8"
290543,5,1609.0,10,3,1,813.0,795.0,,2018,625000.0,51.1525,-113.934,,113,Corner Meadows Gate Ne,Calgary,AB,T3N1K1,"113 Corner Meadows Gate Ne, Calgary, AB, T3N1K1","1083 Cornerstone St Ne, Calgary, AB, T3N1G5"
265571,3,1750.0,10,2,1,935.0,814.0,,1981,750000.0,51.0518,-114.116,,2403,Westmount Road Nw,Calgary,AB,T2N3N9,"2403 Westmount Road Nw, Calgary, AB, T2N3N9","504 37 St Nw,, Calgary,, AB, T2N3B8"
262828,2,965.0,8,1,1,965.0,,,1979,380000.0,51.0619,-114.147,903,145,Point Drive Nw,Calgary,AB,T3B4W1,"145 Point Drive Nw, Unit 903, Calgary, AB, T3B4W1","504 37 St Nw,, Calgary,, AB, T2N3B8"
92564,2,1253.0,6,2,,548.0,705.0,,2006,515000.0,51.0525,-114.041,112,990,Centre Avenue Ne,Calgary,AB,T2E2M9,"990 Centre Avenue Ne, Unit 112, Calgary, AB, T2E2M9","530 3 St Se, Unit 2306, Calgary, AB, T2G2L8"
262056,5,1615.0,10,2,1,958.0,657.0,,1957,1225000.0,51.0548,-114.158,,414,Wildwood Drive Sw,Calgary,AB,T3C3E7,"414 Wildwood Drive Sw, Calgary, AB, T3C3E7","504 37 St Nw,, Calgary,, AB, T2N3B8"
260946,3,1645.0,9,2,1,261.0,1382.0,,2015,849000.0,51.056,-114.131,,3051,Parkdale Lane Nw,Calgary,AB,T2N0R3,"3051 Parkdale Lane Nw, Calgary, AB, T2N0R3","504 37 St Nw,, Calgary,, AB, T2N3B8"
260491,3,1556.0,8,2,1,759.0,797.0,,1978,555000.0,51.06,-114.146,,408,Point Mckay Gardens Nw,Calgary,AB,T3B4V8,"408 Point Mckay Gardens Nw, Calgary, AB, T3B4V8","504 37 St Nw,, Calgary,, AB, T2N3B8"
262254,3,1950.0,12,3,1,826.0,1123.0,,2020,850000.0,51.0569,-114.115,,592,23 Street Nw,Calgary,AB,T2N4R6,"592 23 Street Nw, Calgary, AB, T2N4R6","504 37 St Nw,, Calgary,, AB, T2N3B8"
258577,4,3065.0,15,3,1,1523.0,1541.0,,2012,2040000.0,51.0629,-114.126,,2820,12 Avenue Nw,Calgary,AB,T2N1K8,"2820 12 Avenue Nw, Calgary, AB, T2N1K8","504 37 St Nw,, Calgary,, AB, T2N3B8"
256997,5,2788.0,15,4,1,914.0,1873.0,,2025,1822000.0,51.057,-114.138,,3438,Parkdale Boulevard Nw,Calgary,AB,T2N3T5,"3438 Parkdale Boulevard Nw, Calgary, AB, T2N3T5","504 37 St Nw,, Calgary,, AB, T2N3B8"
78519,6,6930.0,23,4,3,3221.0,3706.0,,2004,7160000.0,51.0569,-114.063,,102,Crescent Road Nw,Calgary,AB,T2M0A1,"102 Crescent Road Nw, Calgary, AB, T2M0A1","530 3 St Se, Unit 2306, Calgary, AB, T2G2L8"
258588,4,1855.0,13,3,1,889.0,966.0,,2016,1050000.0,51.0585,-114.129,,2915,7 Avenue Nw,Calgary,AB,T2N1B3,"2915 7 Avenue Nw, Calgary, AB, T2N1B3","504 37 St Nw,, Calgary,, AB, T2N3B8"
232491,4,2348.0,12,3,2,938.0,1409.0,,2012,910000.0,51.0537,-114.116,,2416,1 Avenue Nw,Calgary,AB,T2N0B9,"2416 1 Avenue Nw, Calgary, AB, T2N0B9","504 37 St Nw,, Calgary,, AB, T2N3B8"
258942,4,1679.0,10,3,1,872.0,807.0,,2004,800000.0,51.0702,-114.154,,2025,43 Street Nw,Calgary,AB,T3B4S7,"2025 43 Street Nw, Calgary, AB, T3B4S7","504 37 St Nw,, Calgary,, AB, T2N3B8"
207540,4,1961.0,13,3,1,935.0,1026.0,,2017,1135000.0,51.0585,-114.12,,2539,7 Avenue Nw,Calgary,AB,T2N1A5,"2539 7 Avenue Nw, Calgary, AB, T2N1A5","504 37 St Nw,, Calgary,, AB, T2N3B8"
206367,3,1554.0,6,2,1,817.0,737.0,,1979,656000.0,51.0597,-114.142,,238,Point Mckay Terrace Nw,Calgary,AB,T2N4N6,"238 Point Mckay Terrace Nw, Calgary, AB, T2N4N6","504 37 St Nw,, Calgary,, AB, T2N3B8"
206275,4,1620.0,12,2,1,833.0,786.0,,1992,740000.0,51.069,-114.162,,4604,Montgomery Avenue Nw,Calgary,AB,T3B0L2,"4604 Montgomery Avenue Nw, Calgary, AB, T3B0L2","504 37 St Nw,, Calgary,, AB, T2N3B8"
206107,4,2600.0,15,2,1,1427.0,1171.0,,1986,775000.0,51.0576,-114.124,,2725,6 Avenue Nw,Calgary,AB,T2N0Y2,"2725 6 Avenue Nw, Calgary, AB, T2N0Y2","504 37 St Nw,, Calgary,, AB, T2N3B8"
96889,6,4420.0,24,4,1,2199.0,2220.0,,2022,3000000.0,51.0606,-114.122,,2543,11 Avenue Nw,Calgary,AB,T2N1H6,"2543 11 Avenue Nw, Calgary, AB, T2N1H6","504 37 St Nw,, Calgary,, AB, T2N3B8"
78825,4,2597.0,16,3,1,1324.0,1272.0,,2008,1890000.0,51.058,-114.115,,2329,6 Avenue Nw,Calgary,AB,T2N0X3,"2329 6 Avenue Nw, Calgary, AB, T2N0X3","504 37 St Nw,, Calgary,, AB, T2N3B8"
78427,1,951.0,6,1,1,951.0,,,2002,390000.0,51.0457,-114.131,1403,24,Hemlock Crescent Sw,Calgary,AB,T3C2Z1,"24 Hemlock Crescent Sw, Unit 1403, Calgary, AB, T3C2Z1","504 37 St Nw,, Calgary,, AB, T2N3B8"
205964,2,1107.0,2,2,,549.0,557.0,,2009,415000.0,51.0421,-114.079,103,788,12 Avenue Sw,Calgary,AB,T2R0H1,"788 12 Avenue Sw, Unit 103, Calgary, AB, T2R0H1","530 3 St Se, Unit 2306, Calgary, AB, T2G2L8"
289986,3,1190.0,8,2,1,468.0,721.0,,2014,413000.0,51.1622,-113.948,,624,Skyview Ranch Grove Ne,Calgary,AB,T3N0R8,"624 Skyview Ranch Grove Ne, Calgary, AB, T3N0R8","1083 Cornerstone St Ne, Calgary, AB, T3N1G5"
279553,2,2121.0,7,2,1,2121.0,,,2007,1800000.0,51.0529,-114.074,802,600,Princeton Way Sw,Calgary,AB,T2P5K2,"600 Princeton Way Sw, Unit 802, Calgary, AB, T2P5K2","530 3 St Se, Unit 2306, Calgary, AB, T2G2L8"
262158,4,1623.0,12,3,1,791.0,831.0,,2024,621000.0,51.1706,-113.936,,1890,Cornerstone Boulevard Ne,Calgary,AB,T3N1B9,"1890 Cornerstone Boulevard Ne, Calgary, AB, T3N1B9","1083 Cornerstone St Ne, Calgary, AB, T3N1G5"
259332,3,1469.0,10,1,1,579.0,585.0,,2016,429750.0,51.1532,-113.96,,143,Cityscape Row Ne,Calgary,AB,T3N0W5,"143 Cityscape Row Ne, Calgary, AB, T3N0W5","1083 Cornerstone St Ne, Calgary, AB, T3N1G5"
257068,3,1480.0,8,3,1,854.0,626.0,,2025,460500.0,51.1735,-113.948,,610,Red Sky Villas Ne,Calgary,AB,T3N1N1,"610 Red Sky Villas Ne, Calgary, AB, T3N1N1","1083 Cornerstone St Ne, Calgary, AB, T3N1G5"
262268,2,1131.0,7,2,1,431.0,560.0,,2021,398500.0,51.1651,-113.944,,6315,128 Avenue Ne,Calgary,AB,T3N1B9,"6315 128 Avenue Ne, Calgary, AB, T3N1B9","1083 Cornerstone St Ne, Calgary, AB, T3N1G5"
273763,2,1786.0,7,2,1,647.0,599.0,,2006,590000.0,51.0529,-114.04,,164,9 Street Ne,Calgary,AB,T2E0P4,"164 9 Street Ne, Calgary, AB, T2E0P4","530 3 St Se, Unit 2306, Calgary, AB, T2G2L8"
215527,3,2260.0,7,2,1,984.0,1275.0,,2025,806828.0,51.1697,-113.944,,8,Corner Glen Green Ne,Calgary,AB,T3N,"8 Corner Glen Green Ne, Calgary, AB, T3N","1083 Cornerstone St Ne, Calgary, AB, T3N1G5"
273992,2,1430.0,6,2,1,1430.0,,,2007,670000.0,51.0505,-114.076,703,701,3 Avenue Sw,Calgary,AB,T2P0J9,"701 3 Avenue Sw, Unit 703, Calgary, AB, T2P0J9","530 3 St Se, Unit 2306, Calgary, AB, T2G2L8"
215465,2,1261.0,8,2,1,634.0,626.0,,2010,413000.0,51.1624,-113.964,,23,Skyview Springs Circle Ne,Calgary,AB,T3N0E6,"23 Skyview Springs Circle Ne, Calgary, AB, T3N0E6","1083 Cornerstone St Ne, Calgary, AB, T3N1G5"
207421,6,2462.0,11,3,1,1054.0,1407.0,,2017,830000.0,51.1637,-113.937,,217,Cornerstone Manor Ne,Calgary,AB,T3N1H4,"217 Cornerstone Manor Ne, Calgary, AB, T3N1H4","1083 Cornerstone St Ne, Calgary, AB, T3N1G5"
207313,6,2064.0,16,3,1,937.0,1127.0,,2013,785000.0,51.1582,-113.955,,2,Skyview Ranch Street Ne,Calgary,AB,T3N0E9,"2 Skyview Ranch Street Ne, Calgary, AB, T3N0E9","1083 Cornerstone St Ne, Calgary, AB, T3N1G5"
206422,5,1808.0,14,3,1,902.0,906.0,,2016,686000.0,51.1622,-113.943,,1059,Cornerstone Street Ne,Calgary,AB,T3N1B9,"1059 Cornerstone Street Ne, Calgary, AB, T3N1B9","1083 Cornerstone St Ne, Calgary, AB, T3N1G5"
277406,4,1601.0,11,1,1,830.0,771.0,,1910,825000.0,51.0425,-114.035,,1215,8 Avenue Se,Calgary,AB,T2G0M6,"1215 8 Avenue Se, Calgary, AB, T2G0M6","530 3 St Se, Unit 2306, Calgary, AB, T2G2L8"
206187,3,1433.0,9,2,1,697.0,697.0,,2015,577000.0,51.1673,-113.951,,103,Redstone Boulevard Ne,Calgary,AB,T3N1B6,"103 Redstone Boulevard Ne, Calgary, AB, T3N1B6","1083 Cornerstone St Ne, Calgary, AB, T3N1G5"
206321,3,1258.0,9,2,1,566.0,691.0,,2015,485000.0,51.1525,-113.96,,10974,Cityscape Drive Ne,Calgary,AB,T3N1A8,"10974 Cityscape Drive Ne, Calgary, AB, T3N1A8","1083 Cornerstone St Ne, Calgary, AB, T3N1G5"
205994,3,1480.0,8,3,1,854.0,626.0,,2025,460000.0,51.1735,-113.948,,616,Red Sky Villas Ne,Calgary,AB,T3N1N1,"616 Red Sky Villas Ne, Calgary, AB, T3N1N1","1083 Cornerstone St Ne, Calgary, AB, T3N1G5"
205854,4,1541.0,10,3,1,775.0,765.0,,2021,646000.0,51.1578,-113.932,,3899,Cornerstone Boulevard Ne,Calgary,AB,T3N1M2,"3899 Cornerstone Boulevard Ne, Calgary, AB, T3N1M2","1083 Cornerstone St Ne, Calgary, AB, T3N1G5"
205902,3,1665.0,7,2,1,811.0,853.0,,2025,615000.0,51.1705,-113.937,,1886,Cornerstone Boulevard Ne,Calgary,AB,T3N1B9,"1886 Cornerstone Boulevard Ne, Calgary, AB, T3N1B9","1083 Cornerstone St Ne, Calgary, AB, T3N1G5"
